{"type": "FeatureCollection", "features": [{"type": "Feature", "geometry": {"type": "Point", "coordinates": [-87.880258, 30.497478]}, "properties": {"key": [7], "site_id": ["010030010"], "site_name": "FAIRHOPE, Alabama", "address": "FAIRHOPE HIGH SCHOOL, 1 PIRATE DRIVE, FAIRHOPE,  ALABAMA", "epa_region": "4", "state_name": "Alabama", "county_name": "Baldwin", "cbsa_name": "Daphne-Fairhope-Foley, AL", "csa_title": "Mobile-Daphne-Fairhope, AL", "monitor_count": "2"}}, {"type": "Feature", "geometry": {"type": "Point", "coordinates": [-85.803608, 33.284928]}, "properties": {"key": [20], "site_id": ["010270001"], "site_name": "ASHLAND", "address": "ASHLAND AIRPORT", "epa_region": "4", "state_name": "Alabama", "county_name": "Clay", "cbsa_name": " ", "csa_title": " ", "monitor_count": "1"}}, {"type": "Feature", "geometry": {"type": "Point", "coordinates": [-87.638097, 34.762619]}, "properties": {"key": [53], "site_id": ["010331002"], "site_name": "MUSCLE SHOALS", "address": "WILSON DAM RD AND 2ND ST.", "epa_region": "4", "state_name": "Alabama", "county_name": "Colbert", "cbsa_name": "Florence-Muscle Shoals, AL", "csa_title": " ", "monitor_count": "2"}}, {"type": "Feature", "geometry": {"type": "Point", "coordinates": [-85.969858, 34.288567]}, "properties": {"key": [73], "site_id": ["010491003"], "site_name": "CROSSVILLE", "address": "13112 HWY.68 , CROSSVILLE AL. 35962", "epa_region": "4", "state_name": "Alabama", "county_name": "DeKalb", "cbsa_name": " ", "csa_title": " ", "monitor_count": "1"}}, {"type": "Feature", "geometry": {"type": "Point", "coordinates": [-85.970065, 34.289001]}, "properties": {"key": [96297], "site_id": ["010499991"], "site_name": "Sand Mountain", "address": "Sand Mountain Alabama Agricultural Experiment Station, Crossville, AL 35962", "epa_region": "4", "state_name": "Alabama", "county_name": "DeKalb", "cbsa_name": " ", "csa_title": " ", "monitor_count": "1"}}, {"type": "Feature", "geometry": {"type": "Point", "coordinates": [-85.992647, 33.991494]}, "properties": {"key": [84], "site_id": ["010550010"], "site_name": "GADSDEN C. COLLEGE", "address": "1001 WALLACE DRIVE, GADSDEN, AL 35902", "epa_region": "4", "state_name": "Alabama", "county_name": "Etowah", "cbsa_name": "Gadsden, AL", "csa_title": " ", "monitor_count": "1"}}, {"type": "Feature", "geometry": {"type": "Point", "coordinates": [-86.0539, 33.9039]}, "properties": {"key": [90905], "site_id": ["010550011"], "site_name": "SOUTHSIDE", "address": "1450 PARKER ANDERSON LANE, SOUTHSIDE, AL 35907", "epa_region": "4", "state_name": "Alabama", "county_name": "Etowah", "cbsa_name": "Gadsden, AL", "csa_title": " ", "monitor_count": "1"}}, {"type": "Feature", "geometry": {"type": "Point", "coordinates": [-85.390789, 31.224783]}, "properties": {"key": [92267], "site_id": ["010690003"], "site_name": "DOTHAN (CIVIC CENTER)", "address": "126 NORTH ST. ANDREWS STREET (CIVIC CENTER)", "epa_region": "4", "state_name": "Alabama", "county_name": "Houston", "cbsa_name": "Dothan, AL", "csa_title": "Dothan-Enterprise-Ozark, AL", "monitor_count": "1"}}, {"type": "Feature", "geometry": {"type": "Point", "coordinates": [-85.423094, 31.188933]}, "properties": {"key": [92289], "site_id": ["010690004"], "site_name": "DOTHAN", "address": "161 BUFORD LANE", "epa_region": "4", "state_name": "Alabama", "county_name": "Houston", "cbsa_name": "Dothan, AL", "csa_title": "Dothan-Enterprise-Ozark, AL", "monitor_count": "1"}}, {"type": "Feature", "geometry": {"type": "Point", "coordinates": [-86.815, 33.553056]}, "properties": {"key": [159], "site_id": ["010730023"], "site_name": "North Birmingham", "address": "NO. B&#039;HAM,SOU R.R., 3009 28TH ST. NO.", "epa_region": "4", "state_name": "Alabama", "county_name": "Jefferson", "cbsa_name": "Birmingham-Hoover, AL", "csa_title": "Birmingham-Hoover-Talladega, AL", "monitor_count": "10"}}, {"type": "Feature", "geometry": {"type": "Point", "coordinates": [-86.915, 33.485556]}, "properties": {"key": [175], "site_id": ["010731003"], "site_name": "Fairfield", "address": "FAIRFIELD, PFD, 5229 COURT B", "epa_region": "4", "state_name": "Alabama", "county_name": "Jefferson", "cbsa_name": "Birmingham-Hoover, AL", "csa_title": "Birmingham-Hoover-Talladega, AL", "monitor_count": "3"}}, {"type": "Feature", "geometry": {"type": "Point", "coordinates": [-87.003611, 33.331111]}, "properties": {"key": [177], "site_id": ["010731005"], "site_name": "McAdory", "address": " ROUTE 8 MCADORY", "epa_region": "4", "state_name": "Alabama", "county_name": "Jefferson", "cbsa_name": "Birmingham-Hoover, AL", "csa_title": "Birmingham-Hoover-Talladega, AL", "monitor_count": "3"}}, {"type": "Feature", "geometry": {"type": "Point", "coordinates": [-86.549167, 33.545278]}, "properties": {"key": [180], "site_id": ["010731010"], "site_name": "Leeds", "address": " 201 ASHVILLE ROAD", "epa_region": "4", "state_name": "Alabama", "county_name": "Jefferson", "cbsa_name": "Birmingham-Hoover, AL", "csa_title": "Birmingham-Hoover-Talladega, AL", "monitor_count": "4"}}, {"type": "Feature", "geometry": {"type": "Point", "coordinates": [-86.924167, 33.499722]}, "properties": {"key": [185], "site_id": ["010732003"], "site_name": "Wylam", "address": "1242 JERSEY ST WYLAM AL", "epa_region": "4", "state_name": "Alabama", "county_name": "Jefferson", "cbsa_name": "Birmingham-Hoover, AL", "csa_title": "Birmingham-Hoover-Talladega, AL", "monitor_count": "3"}}, {"type": "Feature", "geometry": {"type": "Point", "coordinates": [-86.816667, 33.386389]}, "properties": {"key": [188], "site_id": ["010732006"], "site_name": "Hoover", "address": "3425 TAMASSEE LANE, HOOVER, AL 35226", "epa_region": "4", "state_name": "Alabama", "county_name": "Jefferson", "cbsa_name": "Birmingham-Hoover, AL", "csa_title": "Birmingham-Hoover-Talladega, AL", "monitor_count": "1"}}, {"type": "Feature", "geometry": {"type": "Point", "coordinates": [-86.844112, 33.521427]}, "properties": {"key": [97516], "site_id": ["010732059"], "site_name": "Arkadelphia/Near Road", "address": "1110 5th Street West Birmingham, AL 35204", "epa_region": "4", "state_name": "Alabama", "county_name": "Jefferson", "cbsa_name": "Birmingham-Hoover, AL", "csa_title": "Birmingham-Hoover-Talladega, AL", "monitor_count": "3"}}, {"type": "Feature", "geometry": {"type": "Point", "coordinates": [-86.9425, 33.801667]}, "properties": {"key": [91329], "site_id": ["010735003"], "site_name": "Corner", "address": "10005 CORNER SCHOOL ROAD", "epa_region": "4", "state_name": "Alabama", "county_name": "Jefferson", "cbsa_name": "Birmingham-Hoover, AL", "csa_title": "Birmingham-Hoover-Talladega, AL", "monitor_count": "1"}}, {"type": "Feature", "geometry": {"type": "Point", "coordinates": [-86.773889, 33.578333]}, "properties": {"key": [197], "site_id": ["010736002"], "site_name": "Tarrant Elementary School", "address": "TARRANT, ELEM. SCH., 1269 PORTLAND STREE", "epa_region": "4", "state_name": "Alabama", "county_name": "Jefferson", "cbsa_name": "Birmingham-Hoover, AL", "csa_title": "Birmingham-Hoover-Talladega, AL", "monitor_count": "2"}}, {"type": "Feature", "geometry": {"type": "Point", "coordinates": [-86.796389, 33.565278]}, "properties": {"key": [90914], "site_id": ["010736004"], "site_name": "Sloss Shuttlesworth", "address": "4113 SHUTTLESWORTH DRIVE", "epa_region": "4", "state_name": "Alabama", "county_name": "Jefferson", "cbsa_name": "Birmingham-Hoover, AL", "csa_title": "Birmingham-Hoover-Talladega, AL", "monitor_count": "2"}}, {"type": "Feature", "geometry": {"type": "Point", "coordinates": [-86.616105, 34.788423]}, "properties": {"key": [221], "site_id": ["010890002"], "site_name": "Fire Station #10", "address": "5006 PULASKI PIKE", "epa_region": "4", "state_name": "Alabama", "county_name": "Madison", "cbsa_name": "Huntsville, AL", "csa_title": "Huntsville-Decatur-Albertville, AL", "monitor_count": "1"}}, {"type": "Feature", "geometry": {"type": "Point", "coordinates": [-86.585003, 34.728831]}, "properties": {"key": [222], "site_id": ["010890003"], "site_name": "Garage Daily", "address": "MADISON STREET", "epa_region": "4", "state_name": "Alabama", "county_name": "Madison", "cbsa_name": "Huntsville, AL", "csa_title": "Huntsville-Decatur-Albertville, AL", "monitor_count": "1"}}, {"type": "Feature", "geometry": {"type": "Point", "coordinates": [-86.566381, 34.620369]}, "properties": {"key": [223], "site_id": ["010890004"], "site_name": "Fire Station #7", "address": "11525 SO PARKWAY", "epa_region": "4", "state_name": "Alabama", "county_name": "Madison", "cbsa_name": "Huntsville, AL", "csa_title": "Huntsville-Decatur-Albertville, AL", "monitor_count": "1"}}, {"type": "Feature", "geometry": {"type": "Point", "coordinates": [-86.586362, 34.687761]}, "properties": {"key": [233], "site_id": ["010890014"], "site_name": "HUNTSVILLE OLD AIRPORT", "address": "2201 AIRPORT ROAD", "epa_region": "4", "state_name": "Alabama", "county_name": "Madison", "cbsa_name": "Huntsville, AL", "csa_title": "Huntsville-Decatur-Albertville, AL", "monitor_count": "5"}}, {"type": "Feature", "geometry": {"type": "Point", "coordinates": [-86.756174, 34.772727]}, "properties": {"key": [95968], "site_id": ["010890022"], "site_name": "HUNTSVILLE CAPSHAW ROAD", "address": "1130 Capshaw Road", "epa_region": "4", "state_name": "Alabama", "county_name": "Madison", "cbsa_name": "Huntsville, AL", "csa_title": "Huntsville-Decatur-Albertville, AL", "monitor_count": "1"}}, {"type": "Feature", "geometry": {"type": "Point", "coordinates": [-88.087761, 30.770181]}, "properties": {"key": [244], "site_id": ["010970003"], "site_name": "CHICKASAW", "address": "Iroquois and Azalea, CHICKASAW, MOBILE CO.,  ALABAMA", "epa_region": "4", "state_name": "Alabama", "county_name": "Mobile", "cbsa_name": "Mobile, AL", "csa_title": "Mobile-Daphne-Fairhope, AL", "monitor_count": "3"}}, {"type": "Feature", "geometry": {"type": "Point", "coordinates": [-88.1411, 30.4747]}, "properties": {"key": [283], "site_id": ["010972005"], "site_name": "BAY ROAD", "address": "BAY RD. ,MOBILE AL.", "epa_region": "4", "state_name": "Alabama", "county_name": "Mobile", "cbsa_name": "Mobile, AL", "csa_title": "Mobile-Daphne-Fairhope, AL", "monitor_count": "1"}}, {"type": "Feature", "geometry": {"type": "Point", "coordinates": [-86.263394, 32.412811]}, "properties": {"key": [298], "site_id": ["011011002"], "site_name": "MOMS, ADEM", "address": "1350 COLISEUM BLVD, MONTGOMERY, ALABAMA", "epa_region": "4", "state_name": "Alabama", "county_name": "Montgomery", "cbsa_name": "Montgomery, AL", "csa_title": " ", "monitor_count": "5"}}, {"type": "Feature", "geometry": {"type": "Point", "coordinates": [-86.967536, 34.530717]}, "properties": {"key": [309], "site_id": ["011030011"], "site_name": "DECATUR, Alabama", "address": "P.O. BOX 2224 WALLACE DEVELOPMENT CENTER. DECATUR, ALABAMA", "epa_region": "4", "state_name": "Alabama", "county_name": "Morgan", "cbsa_name": "Decatur, AL", "csa_title": "Huntsville-Decatur-Albertville, AL", "monitor_count": "2"}}, {"type": "Feature", "geometry": {"type": "Point", "coordinates": [-85.97917, 31.79056]}, "properties": {"key": [314], "site_id": ["011090003"], "site_name": "TROY LEAD", "address": "HENDERSON ROAD", "epa_region": "4", "state_name": "Alabama", "county_name": "Pike", "cbsa_name": "Troy, AL", "csa_title": " ", "monitor_count": "2"}}, {"type": "Feature", "geometry": {"type": "Point", "coordinates": [-84.999653, 32.437028]}, "properties": {"key": [103917], "site_id": ["011130003"], "site_name": "PHENIX CITY - SOUTH GIRARD SCHOOL", "address": "510 6th Place South, Phenix City, Alabama  36869", "epa_region": "4", "state_name": "Alabama", "county_name": "Russell", "cbsa_name": "Columbus, GA-AL", "csa_title": "Columbus-Auburn-Opelika, GA-AL", "monitor_count": "2"}}, {"type": "Feature", "geometry": {"type": "Point", "coordinates": [-86.825, 33.3169]}, "properties": {"key": [320], "site_id": ["011170004"], "site_name": "HELENA", "address": "HELENA, BEARDEN FARM", "epa_region": "4", "state_name": "Alabama", "county_name": "Shelby", "cbsa_name": "Birmingham-Hoover, AL", "csa_title": "Birmingham-Hoover-Talladega, AL", "monitor_count": "1"}}, {"type": "Feature", "geometry": {"type": "Point", "coordinates": [-86.8072, 33.0928]}, "properties": {"key": [102868], "site_id": ["011179001"], "site_name": "Lhoist, Montevallo Plant", "address": "7444 State Hwy 25", "epa_region": "4", "state_name": "Alabama", "county_name": "Shelby", "cbsa_name": "Birmingham-Hoover, AL", "csa_title": "Birmingham-Hoover-Talladega, AL", "monitor_count": "1"}}, {"type": "Feature", "geometry": {"type": "Point", "coordinates": [-88.277992, 32.362606]}, "properties": {"key": [96881], "site_id": ["011190003"], "site_name": "Ward, Sumter Co.", "address": "NNE of Ward Post Office, Sumter Co., Alabama", "epa_region": "4", "state_name": "Alabama", "county_name": "Sumter", "cbsa_name": " ", "csa_title": " ", "monitor_count": "2"}}, {"type": "Feature", "geometry": {"type": "Point", "coordinates": [-87.484189, 33.189931]}, "properties": {"key": [91349], "site_id": ["011250004"], "site_name": "VA, TUSCALOOSA", "address": "3701 LOOP ROAD EAST", "epa_region": "4", "state_name": "Alabama", "county_name": "Tuscaloosa", "cbsa_name": "Tuscaloosa, AL", "csa_title": " ", "monitor_count": "1"}}, {"type": "Feature", "geometry": {"type": "Point", "coordinates": [-87.459733, 33.089772]}, "properties": {"key": [334], "site_id": ["011250010"], "site_name": "DUNCANVILLE, TUSCALOOSA", "address": "11690 SOUTHFORK DR. DUNCANVILLE, AL_35456", "epa_region": "4", "state_name": "Alabama", "county_name": "Tuscaloosa", "cbsa_name": "Tuscaloosa, AL", "csa_title": " ", "monitor_count": "1"}}, {"type": "Feature", "geometry": {"type": "Point", "coordinates": [-149.824602, 61.205861]}, "properties": {"key": [353], "site_id": ["020200018"], "site_name": "GARDEN/TRINITY CHRISTIAN CHURCH", "address": "3000 EAST 16TH AVENUE", "epa_region": "10", "state_name": "Alaska", "county_name": "Anchorage ", "cbsa_name": "Anchorage, AK", "csa_title": " ", "monitor_count": "3"}}, {"type": "Feature", "geometry": {"type": "Point", "coordinates": [-149.834003, 61.181117]}, "properties": {"key": [99660], "site_id": ["020200045"], "site_name": "ON THE ROOF OF THE TUDOR PROFESSIONAL BUILDING", "address": "4335 LAUREL STREET ANCHORAGE AK 99508", "epa_region": "10", "state_name": "Alaska", "county_name": "Anchorage ", "cbsa_name": "Anchorage, AK", "csa_title": " ", "monitor_count": "1"}}, {"type": "Feature", "geometry": {"type": "Point", "coordinates": [-149.569707, 61.3267]}, "properties": {"key": [376], "site_id": ["020201004"], "site_name": "PARKGATE/EAGLE RIVER", "address": "11723 OLD GLENN HIGHWAY", "epa_region": "10", "state_name": "Alaska", "county_name": "Anchorage ", "cbsa_name": "Anchorage, AK", "csa_title": " ", "monitor_count": "2"}}, {"type": "Feature", "geometry": {"type": "Point", "coordinates": [-148.9676, 63.7232]}, "properties": {"key": [466], "site_id": ["020680003"], "site_name": "NA", "address": "DENALI NATIONAL PARK", "epa_region": "10", "state_name": "Alaska", "county_name": "Denali ", "cbsa_name": " ", "csa_title": " ", "monitor_count": "1"}}, {"type": "Feature", "geometry": {"type": "Point", "coordinates": [-147.722461, 64.840672]}, "properties": {"key": [385], "site_id": ["020900010"], "site_name": "STATE OFFICE BUILDING", "address": "675 7TH AVENUE, FAIRBANKS", "epa_region": "10", "state_name": "Alaska", "county_name": "Fairbanks North Star ", "cbsa_name": "Fairbanks, AK", "csa_title": " ", "monitor_count": "2"}}, {"type": "Feature", "geometry": {"type": "Point", "coordinates": [-147.727413, 64.84569]}, "properties": {"key": [96405], "site_id": ["020900034"], "site_name": "NCORE", "address": "809 Pioneer Road", "epa_region": "10", "state_name": "Alaska", "county_name": "Fairbanks North Star ", "cbsa_name": "Fairbanks, AK", "csa_title": " ", "monitor_count": "9"}}, {"type": "Feature", "geometry": {"type": "Point", "coordinates": [-147.310297, 64.762973]}, "properties": {"key": [96863], "site_id": ["020900035"], "site_name": "North Pole Fire Station #3", "address": "3288 Hurst Road, North Pole, Alaska 99705", "epa_region": "10", "state_name": "Alaska", "county_name": "Fairbanks North Star ", "cbsa_name": "Fairbanks, AK", "csa_title": " ", "monitor_count": "3"}}, {"type": "Feature", "geometry": {"type": "Point", "coordinates": [-134.567237, 58.388497]}, "properties": {"key": [408], "site_id": ["021100004"], "site_name": "Floyd Dryden Middle School", "address": "3800 MENDENHALL LOOP ROAD", "epa_region": "10", "state_name": "Alaska", "county_name": "Juneau ", "cbsa_name": "Juneau, AK", "csa_title": " ", "monitor_count": "4"}}, {"type": "Feature", "geometry": {"type": "Point", "coordinates": [-149.031655, 61.534163]}, "properties": {"key": [443], "site_id": ["021700008"], "site_name": "BUTTE", "address": "HARRISON COURT,SITE LOCATED AT END OF CUL-DE-SAC", "epa_region": "10", "state_name": "Alaska", "county_name": "Matanuska-Susitna ", "cbsa_name": "Anchorage, AK", "csa_title": " ", "monitor_count": "2"}}, {"type": "Feature", "geometry": {"type": "Point", "coordinates": [-149.10622, 61.598898]}, "properties": {"key": [95305], "site_id": ["021700012"], "site_name": "Palmer", "address": "SOUTH GULKANA STREET", "epa_region": "10", "state_name": "Alaska", "county_name": "Matanuska-Susitna ", "cbsa_name": "Anchorage, AK", "csa_title": " ", "monitor_count": "3"}}, {"type": "Feature", "geometry": {"type": "Point", "coordinates": [-109.85801, 34.07339]}, "properties": {"key": [95357], "site_id": ["040011003"], "site_name": "White Mountain Fort Apache Reservation", "address": "51 Nasco Avenue", "epa_region": "9", "state_name": "Arizona", "county_name": "Apache", "cbsa_name": " ", "csa_title": " ", "monitor_count": "1"}}, {"type": "Feature", "geometry": {"type": "Point", "coordinates": [-109.438003, 35.880404]}, "properties": {"key": [95176], "site_id": ["040011235"], "site_name": "Nazlini", "address": "Indian Route 27, Mile Post 14, 1/4 Mi N. Power Line Rd.", "epa_region": "9", "state_name": "Arizona", "county_name": "Apache", "cbsa_name": " ", "csa_title": " ", "monitor_count": "2"}}, {"type": "Feature", "geometry": {"type": "Point", "coordinates": [-109.73095, 31.3658]}, "properties": {"key": [485], "site_id": ["040030011"], "site_name": "PAUL SPUR CHEMICAL LIME PLANT", "address": "HOUSING AREA, PAUL SPUR", "epa_region": "9", "state_name": "Arizona", "county_name": "Cochise", "cbsa_name": "Sierra Vista-Douglas, AZ", "csa_title": " ", "monitor_count": "1"}}, {"type": "Feature", "geometry": {"type": "Point", "coordinates": [-109.539683, 31.3492]}, "properties": {"key": [493], "site_id": ["040031005"], "site_name": "DOUGLAS RED CROSS", "address": "1445-1449 15TH STREET", "epa_region": "9", "state_name": "Arizona", "county_name": "Cochise", "cbsa_name": "Sierra Vista-Douglas, AZ", "csa_title": " ", "monitor_count": "2"}}, {"type": "Feature", "geometry": {"type": "Point", "coordinates": [-109.38906, 32.00941]}, "properties": {"key": [499], "site_id": ["040038001"], "site_name": "Chiricahua National Monument", "address": "CHIRICAHUA NATIONAL MOUMENT", "epa_region": "9", "state_name": "Arizona", "county_name": "Cochise", "cbsa_name": "Sierra Vista-Douglas, AZ", "csa_title": " ", "monitor_count": "1"}}, {"type": "Feature", "geometry": {"type": "Point", "coordinates": [-111.652777, 35.206111]}, "properties": {"key": [521], "site_id": ["040051008"], "site_name": "FLAGSTAFF MIDDLE SCHOOL", "address": "755 W BONITO", "epa_region": "9", "state_name": "Arizona", "county_name": "Coconino", "cbsa_name": "Flagstaff, AZ", "csa_title": " ", "monitor_count": "1"}}, {"type": "Feature", "geometry": {"type": "Point", "coordinates": [-112.18358, 36.05864]}, "properties": {"key": [525], "site_id": ["040058001"], "site_name": "Grand Canyon National Park, The Abyss", "address": "GRAND CANYON NATIONAL PARK, W RIM DRIVE", "epa_region": "9", "state_name": "Arizona", "county_name": "Coconino", "cbsa_name": "Flagstaff, AZ", "csa_title": " ", "monitor_count": "1"}}, {"type": "Feature", "geometry": {"type": "Point", "coordinates": [-111.3295, 34.229733]}, "properties": {"key": [533], "site_id": ["040070008"], "site_name": "PAYSON WELL SITE", "address": "204 W AERO DR", "epa_region": "9", "state_name": "Arizona", "county_name": "Gila", "cbsa_name": "Payson, AZ", "csa_title": " ", "monitor_count": "1"}}, {"type": "Feature", "geometry": {"type": "Point", "coordinates": [-110.858896, 33.399135]}, "properties": {"key": [91254], "site_id": ["040070009"], "site_name": "MIAMI RIDGELINE", "address": "4030 LINDEN STREET", "epa_region": "9", "state_name": "Arizona", "county_name": "Gila", "cbsa_name": "Payson, AZ", "csa_title": " ", "monitor_count": "1"}}, {"type": "Feature", "geometry": {"type": "Point", "coordinates": [-111.1074, 33.6547]}, "properties": {"key": [91333], "site_id": ["040070010"], "site_name": "TONTO NM", "address": "SOUTH OF SR88", "epa_region": "9", "state_name": "Arizona", "county_name": "Gila", "cbsa_name": "Payson, AZ", "csa_title": " ", "monitor_count": "1"}}, {"type": "Feature", "geometry": {"type": "Point", "coordinates": [-110.867267, 33.3855]}, "properties": {"key": [97376], "site_id": ["040070011"], "site_name": "Miami Jones Ranch", "address": "Cherry Flats Rd.", "epa_region": "9", "state_name": "Arizona", "county_name": "Gila", "cbsa_name": "Payson, AZ", "csa_title": " ", "monitor_count": "2"}}, {"type": "Feature", "geometry": {"type": "Point", "coordinates": [-110.87445, 33.397433]}, "properties": {"key": [97379], "site_id": ["040070012"], "site_name": "Miami Townsite", "address": "Sullivan ST & Davis Canyon", "epa_region": "9", "state_name": "Arizona", "county_name": "Gila", "cbsa_name": "Payson, AZ", "csa_title": " ", "monitor_count": "2"}}, {"type": "Feature", "geometry": {"type": "Point", "coordinates": [-110.785797, 33.006179]}, "properties": {"key": [539], "site_id": ["040071001"], "site_name": "HAYDEN OLD JAIL", "address": "JAIL-CANYON DR, HAYDEN", "epa_region": "9", "state_name": "Arizona", "county_name": "Gila", "cbsa_name": "Payson, AZ", "csa_title": " ", "monitor_count": "3"}}, {"type": "Feature", "geometry": {"type": "Point", "coordinates": [-110.765467, 33.002517]}, "properties": {"key": [96216], "site_id": ["040071002"], "site_name": "Globe Highway", "address": "SR 77", "epa_region": "9", "state_name": "Arizona", "county_name": "Gila", "cbsa_name": "Payson, AZ", "csa_title": " ", "monitor_count": "2"}}, {"type": "Feature", "geometry": {"type": "Point", "coordinates": [-110.7822, 33.0035]}, "properties": {"key": [100816], "site_id": ["040071003"], "site_name": "Hillcrest AMS", "address": "123 Hillcrest Ave", "epa_region": "9", "state_name": "Arizona", "county_name": "Gila", "cbsa_name": "Payson, AZ", "csa_title": " ", "monitor_count": "1"}}, {"type": "Feature", "geometry": {"type": "Point", "coordinates": [-110.82967, 33.419017]}, "properties": {"key": [93295], "site_id": ["040078000"], "site_name": "MIAMI GOLF COURSE", "address": "SR 188 & US 60", "epa_region": "9", "state_name": "Arizona", "county_name": "Gila", "cbsa_name": "Payson, AZ", "csa_title": " ", "monitor_count": "2"}}, {"type": "Feature", "geometry": {"type": "Point", "coordinates": [-113.5586, 34.2439]}, "properties": {"key": [92449], "site_id": ["040128000"], "site_name": "ALAMO LAKE", "address": "ALAMO LAKE STATE PARK", "epa_region": "9", "state_name": "Arizona", "county_name": "La Paz", "cbsa_name": " ", "csa_title": " ", "monitor_count": "4"}}, {"type": "Feature", "geometry": {"type": "Point", "coordinates": [-112.14257, 33.48385]}, "properties": {"key": [575], "site_id": ["040130019"], "site_name": "WEST PHOENIX", "address": "3847 W EARLL DR-WEST PHOENIX STATION", "epa_region": "9", "state_name": "Arizona", "county_name": "Maricopa", "cbsa_name": "Phoenix-Mesa-Scottsdale, AZ", "csa_title": " ", "monitor_count": "6"}}, {"type": "Feature", "geometry": {"type": "Point", "coordinates": [-111.86507, 33.41045]}, "properties": {"key": [581], "site_id": ["040131003"], "site_name": "MESA", "address": "310 S BROOKS, MESA", "epa_region": "9", "state_name": "Arizona", "county_name": "Maricopa", "cbsa_name": "Phoenix-Mesa-Scottsdale, AZ", "csa_title": " ", "monitor_count": "4"}}, {"type": "Feature", "geometry": {"type": "Point", "coordinates": [-112.06626, 33.56033]}, "properties": {"key": [582], "site_id": ["040131004"], "site_name": "NORTH PHOENIX", "address": "601 E BUTLER DR & N 6TH ST,PHOENIX", "epa_region": "9", "state_name": "Arizona", "county_name": "Maricopa", "cbsa_name": "Phoenix-Mesa-Scottsdale, AZ", "csa_title": " ", "monitor_count": "3"}}, {"type": "Feature", "geometry": {"type": "Point", "coordinates": [-111.73331, 33.45223]}, "properties": {"key": [588], "site_id": ["040131010"], "site_name": "FALCON FIELD", "address": "4530 E MCKELLIPS RD-FALCON FIELD STATION", "epa_region": "9", "state_name": "Arizona", "county_name": "Maricopa", "cbsa_name": "Phoenix-Mesa-Scottsdale, AZ", "csa_title": " ", "monitor_count": "1"}}, {"type": "Feature", "geometry": {"type": "Point", "coordinates": [-112.19196, 33.57454]}, "properties": {"key": [589], "site_id": ["040132001"], "site_name": "GLENDALE", "address": "6000 W OLIVE AVE,GLENDALE", "epa_region": "9", "state_name": "Arizona", "county_name": "Maricopa", "cbsa_name": "Phoenix-Mesa-Scottsdale, AZ", "csa_title": " ", "monitor_count": "3"}}, {"type": "Feature", "geometry": {"type": "Point", "coordinates": [-111.855622, 33.706328]}, "properties": {"key": [593], "site_id": ["040132005"], "site_name": "PINNACLE PEAK", "address": "24301 N ALMA SCHOOL RD", "epa_region": "9", "state_name": "Arizona", "county_name": "Maricopa", "cbsa_name": "Phoenix-Mesa-Scottsdale, AZ", "csa_title": " ", "monitor_count": "1"}}, {"type": "Feature", "geometry": {"type": "Point", "coordinates": [-112.04601, 33.45793]}, "properties": {"key": [595], "site_id": ["040133002"], "site_name": "CENTRAL PHOENIX", "address": "1645 E ROOSEVELT ST-CENTRAL PHOENIX STN", "epa_region": "9", "state_name": "Arizona", "county_name": "Maricopa", "cbsa_name": "Phoenix-Mesa-Scottsdale, AZ", "csa_title": " ", "monitor_count": "5"}}, {"type": "Feature", "geometry": {"type": "Point", "coordinates": [-111.91721, 33.47968]}, "properties": {"key": [596], "site_id": ["040133003"], "site_name": "SOUTH SCOTTSDALE", "address": "2857 N MILLER RD-S SCOTTSDALE STN", "epa_region": "9", "state_name": "Arizona", "county_name": "Maricopa", "cbsa_name": "Phoenix-Mesa-Scottsdale, AZ", "csa_title": " ", "monitor_count": "2"}}, {"type": "Feature", "geometry": {"type": "Point", "coordinates": [-112.07533, 33.40316]}, "properties": {"key": [605], "site_id": ["040134003"], "site_name": "SOUTH PHOENIX", "address": "33 W TAMARISK AVE, PHOENIX", "epa_region": "9", "state_name": "Arizona", "county_name": "Maricopa", "cbsa_name": "Phoenix-Mesa-Scottsdale, AZ", "csa_title": " ", "monitor_count": "4"}}, {"type": "Feature", "geometry": {"type": "Point", "coordinates": [-111.88431, 33.29898]}, "properties": {"key": [606], "site_id": ["040134004"], "site_name": "WEST CHANDLER", "address": "275 S ELLIS, CHANDLER", "epa_region": "9", "state_name": "Arizona", "county_name": "Maricopa", "cbsa_name": "Phoenix-Mesa-Scottsdale, AZ", "csa_title": " ", "monitor_count": "3"}}, {"type": "Feature", "geometry": {"type": "Point", "coordinates": [-111.93473, 33.4124]}, "properties": {"key": [607], "site_id": ["040134005"], "site_name": "TEMPE", "address": "1525 S COLLEGE AVE, TEMPE", "epa_region": "9", "state_name": "Arizona", "county_name": "Maricopa", "cbsa_name": "Phoenix-Mesa-Scottsdale, AZ", "csa_title": " ", "monitor_count": "3"}}, {"type": "Feature", "geometry": {"type": "Point", "coordinates": [-111.720029, 33.309944]}, "properties": {"key": [608], "site_id": ["040134006"], "site_name": "HIGLEY", "address": "2207 SOUTH HIGLEY ROAD", "epa_region": "9", "state_name": "Arizona", "county_name": "Maricopa", "cbsa_name": "Phoenix-Mesa-Scottsdale, AZ", "csa_title": " ", "monitor_count": "1"}}, {"type": "Feature", "geometry": {"type": "Point", "coordinates": [-112.01739, 33.82169]}, "properties": {"key": [90864], "site_id": ["040134008"], "site_name": "CAVE CREEK", "address": "37019 N. LAVA LANE. CAVE CREEK AZ", "epa_region": "9", "state_name": "Arizona", "county_name": "Maricopa", "cbsa_name": "Phoenix-Mesa-Scottsdale, AZ", "csa_title": " ", "monitor_count": "1"}}, {"type": "Feature", "geometry": {"type": "Point", "coordinates": [-112.14434, 33.40642]}, "properties": {"key": [91197], "site_id": ["040134009"], "site_name": "WEST 43RD AVENUE", "address": "3940 WEST BROADWAY ROAD PHOENIX AZ", "epa_region": "9", "state_name": "Arizona", "county_name": "Maricopa", "cbsa_name": "Phoenix-Mesa-Scottsdale, AZ", "csa_title": " ", "monitor_count": "1"}}, {"type": "Feature", "geometry": {"type": "Point", "coordinates": [-112.34184, 33.63713]}, "properties": {"key": [91594], "site_id": ["040134010"], "site_name": "DYSART", "address": "16825 N. DYSART", "epa_region": "9", "state_name": "Arizona", "county_name": "Maricopa", "cbsa_name": "Phoenix-Mesa-Scottsdale, AZ", "csa_title": " ", "monitor_count": "2"}}, {"type": "Feature", "geometry": {"type": "Point", "coordinates": [-112.6207, 33.37005]}, "properties": {"key": [92016], "site_id": ["040134011"], "site_name": "BUCKEYE", "address": "26453 W. MC85", "epa_region": "9", "state_name": "Arizona", "county_name": "Maricopa", "cbsa_name": "Phoenix-Mesa-Scottsdale, AZ", "csa_title": " ", "monitor_count": "4"}}, {"type": "Feature", "geometry": {"type": "Point", "coordinates": [-112.294171, 33.686738]}, "properties": {"key": [95298], "site_id": ["040134016"], "site_name": "Zuni Hills", "address": "10851 W Williams Rd, Sun City AZ", "epa_region": "9", "state_name": "Arizona", "county_name": "Maricopa", "cbsa_name": "Phoenix-Mesa-Scottsdale, AZ", "csa_title": " ", "monitor_count": "1"}}, {"type": "Feature", "geometry": {"type": "Point", "coordinates": [-112.08635, 33.684627]}, "properties": {"key": [95929], "site_id": ["040134018"], "site_name": "Deer Valley", "address": "1030 W. Deer Valley Rd", "epa_region": "9", "state_name": "Arizona", "county_name": "Maricopa", "cbsa_name": "Phoenix-Mesa-Scottsdale, AZ", "csa_title": " ", "monitor_count": "2"}}, {"type": "Feature", "geometry": {"type": "Point", "coordinates": [-111.967972, 33.39625]}, "properties": {"key": [97623], "site_id": ["040134019"], "site_name": "Diablo", "address": "1919 W Fairmont Dr., Tempe, AZ", "epa_region": "9", "state_name": "Arizona", "county_name": "Maricopa", "cbsa_name": "Phoenix-Mesa-Scottsdale, AZ", "csa_title": " ", "monitor_count": "3"}}, {"type": "Feature", "geometry": {"type": "Point", "coordinates": [-112.128159, 33.461554]}, "properties": {"key": [99647], "site_id": ["040134020"], "site_name": "Thirty-Third", "address": "3248 W. Moreland", "epa_region": "9", "state_name": "Arizona", "county_name": "Maricopa", "cbsa_name": "Phoenix-Mesa-Scottsdale, AZ", "csa_title": " ", "monitor_count": "1"}}, {"type": "Feature", "geometry": {"type": "Point", "coordinates": [-112.160597, 33.290229]}, "properties": {"key": [91559], "site_id": ["040137003"], "site_name": "St Johns Air Monitoring Site", "address": "4208 W. PECOS LAVEEN, AZ 85339 (GILA CROSSING NORTH ELEM SCH)", "epa_region": "9", "state_name": "Arizona", "county_name": "Maricopa", "cbsa_name": "Phoenix-Mesa-Scottsdale, AZ", "csa_title": " ", "monitor_count": "2"}}, {"type": "Feature", "geometry": {"type": "Point", "coordinates": [-111.855654, 33.488242]}, "properties": {"key": [92369], "site_id": ["040137020"], "site_name": "Senior Center Air Monitoring Station", "address": "10844 EAST OSBORN ROAD SCOTTSDALE AZ 85256", "epa_region": "9", "state_name": "Arizona", "county_name": "Maricopa", "cbsa_name": "Phoenix-Mesa-Scottsdale, AZ", "csa_title": " ", "monitor_count": "4"}}, {"type": "Feature", "geometry": {"type": "Point", "coordinates": [-111.755334, 33.507992]}, "properties": {"key": [92411], "site_id": ["040137021"], "site_name": "Red Mountain Air Monitoring Station", "address": "15115 BEELINE HIGHWAY, SCOTTSDALE, AZ 86256", "epa_region": "9", "state_name": "Arizona", "county_name": "Maricopa", "cbsa_name": "Phoenix-Mesa-Scottsdale, AZ", "csa_title": " ", "monitor_count": "1"}}, {"type": "Feature", "geometry": {"type": "Point", "coordinates": [-111.805769, 33.474609]}, "properties": {"key": [92412], "site_id": ["040137022"], "site_name": "Lehi Air Monitoring Station", "address": "3250 NORTH STAPLEY DRIVE, MESA, AZ 85203", "epa_region": "9", "state_name": "Arizona", "county_name": "Maricopa", "cbsa_name": "Phoenix-Mesa-Scottsdale, AZ", "csa_title": " ", "monitor_count": "3"}}, {"type": "Feature", "geometry": {"type": "Point", "coordinates": [-111.83852, 33.508125]}, "properties": {"key": [93403], "site_id": ["040137024"], "site_name": "High School Air Monitoring Station", "address": "4827 NORTH COUNTRY CLUB DRIVE, SCOTTSDALE, AZ 85256", "epa_region": "9", "state_name": "Arizona", "county_name": "Maricopa", "cbsa_name": "Phoenix-Mesa-Scottsdale, AZ", "csa_title": " ", "monitor_count": "2"}}, {"type": "Feature", "geometry": {"type": "Point", "coordinates": [-111.7987, 33.9828]}, "properties": {"key": [615], "site_id": ["040139508"], "site_name": "HUMBOLDT MOUNTAIN", "address": "SEVEN SPRINGS RD-FAA RADAR STN-TONTO NF", "epa_region": "9", "state_name": "Arizona", "county_name": "Maricopa", "cbsa_name": "Phoenix-Mesa-Scottsdale, AZ", "csa_title": " ", "monitor_count": "1"}}, {"type": "Feature", "geometry": {"type": "Point", "coordinates": [-111.60925, 33.54549]}, "properties": {"key": [619], "site_id": ["040139702"], "site_name": "BLUE POINT-SHERIFF STATION-TONTO NF-SALT RIVER RECREATION AREA", "address": "USERY PASS RD/BUSH HWY", "epa_region": "9", "state_name": "Arizona", "county_name": "Maricopa", "cbsa_name": "Phoenix-Mesa-Scottsdale, AZ", "csa_title": " ", "monitor_count": "1"}}, {"type": "Feature", "geometry": {"type": "Point", "coordinates": [-111.72529, 33.61103]}, "properties": {"key": [620], "site_id": ["040139704"], "site_name": "FOUNTAIN HILLS", "address": "16426 E PALISADES BLVD,FOUNTAIN HILLS,AZ", "epa_region": "9", "state_name": "Arizona", "county_name": "Maricopa", "cbsa_name": "Phoenix-Mesa-Scottsdale, AZ", "csa_title": " ", "monitor_count": "1"}}, {"type": "Feature", "geometry": {"type": "Point", "coordinates": [-112.11814, 33.4265]}, "properties": {"key": [624], "site_id": ["040139812"], "site_name": "DURANGO COMPLEX", "address": "2702 RC ESTERBROOKS BLVD", "epa_region": "9", "state_name": "Arizona", "county_name": "Maricopa", "cbsa_name": "Phoenix-Mesa-Scottsdale, AZ", "csa_title": " ", "monitor_count": "3"}}, {"type": "Feature", "geometry": {"type": "Point", "coordinates": [-112.095767, 33.503833]}, "properties": {"key": [632], "site_id": ["040139997"], "site_name": "JLG SUPERSITE", "address": "4530 N 17TH AVENUE", "epa_region": "9", "state_name": "Arizona", "county_name": "Maricopa", "cbsa_name": "Phoenix-Mesa-Scottsdale, AZ", "csa_title": " ", "monitor_count": "8"}}, {"type": "Feature", "geometry": {"type": "Point", "coordinates": [-114.566111, 35.153888]}, "properties": {"key": [643], "site_id": ["040151003"], "site_name": "BULLHEAD CITY ADEQ", "address": "BULLHEAD CITY 990 HWY 95", "epa_region": "9", "state_name": "Arizona", "county_name": "Mohave", "cbsa_name": "Lake Havasu City-Kingman, AZ", "csa_title": "Las Vegas-Henderson, NV-AZ", "monitor_count": "1"}}, {"type": "Feature", "geometry": {"type": "Point", "coordinates": [-109.89249, 34.82251]}, "properties": {"key": [91285], "site_id": ["040170119"], "site_name": "Petrified Forest National Park, South Entrance", "address": "PET FOR NAT PARK, NEAR OLD SW ENTERANCE ON OLD ROUTE 180", "epa_region": "9", "state_name": "Arizona", "county_name": "Navajo", "cbsa_name": "Show Low, AZ", "csa_title": " ", "monitor_count": "1"}}, {"type": "Feature", "geometry": {"type": "Point", "coordinates": [-109.97029, 33.85815]}, "properties": {"key": [95356], "site_id": ["040171002"], "site_name": "Whiteriver - Fort Apache Reservation", "address": "612 South Chief Avenue", "epa_region": "9", "state_name": "Arizona", "county_name": "Navajo", "cbsa_name": "Show Low, AZ", "csa_title": " ", "monitor_count": "1"}}, {"type": "Feature", "geometry": {"type": "Point", "coordinates": [-112.857453, 32.382036]}, "properties": {"key": [651], "site_id": ["040190001"], "site_name": "AJO", "address": "AZ HWY DEPT YARD-WELL RD, AJO", "epa_region": "9", "state_name": "Arizona", "county_name": "Pima", "cbsa_name": "Tucson, AZ", "csa_title": "Tucson-Nogales, AZ", "monitor_count": "1"}}, {"type": "Feature", "geometry": {"type": "Point", "coordinates": [-110.792593, 32.004707]}, "properties": {"key": [656], "site_id": ["040190008"], "site_name": "CORONA DE TUCSON", "address": "22000 S HOUGHTON RD, CORONA DE TUCSON", "epa_region": "9", "state_name": "Arizona", "county_name": "Pima", "cbsa_name": "Tucson, AZ", "csa_title": "Tucson-Nogales, AZ", "monitor_count": "1"}}, {"type": "Feature", "geometry": {"type": "Point", "coordinates": [-111.038389, 32.322661]}, "properties": {"key": [659], "site_id": ["040190011"], "site_name": "ORANGE GROVE", "address": "3401 W ORANGE GROVE RD, TUCSON", "epa_region": "9", "state_name": "Arizona", "county_name": "Pima", "cbsa_name": "Tucson, AZ", "csa_title": "Tucson-Nogales, AZ", "monitor_count": "2"}}, {"type": "Feature", "geometry": {"type": "Point", "coordinates": [-111.154544, 32.414344]}, "properties": {"key": [668], "site_id": ["040190020"], "site_name": "RILLITO", "address": "8840 W ROBINSON STREET, RILLITO", "epa_region": "9", "state_name": "Arizona", "county_name": "Pima", "cbsa_name": "Tucson, AZ", "csa_title": "Tucson-Nogales, AZ", "monitor_count": "1"}}, {"type": "Feature", "geometry": {"type": "Point", "coordinates": [-110.737116, 32.174538]}, "properties": {"key": [669], "site_id": ["040190021"], "site_name": "SAGUARO PARK", "address": "3905 S. OLD SPANISH TRAIL, SAGUARO PARK EAST", "epa_region": "9", "state_name": "Arizona", "county_name": "Pima", "cbsa_name": "Tucson, AZ", "csa_title": "Tucson-Nogales, AZ", "monitor_count": "1"}}, {"type": "Feature", "geometry": {"type": "Point", "coordinates": [-110.967905, 32.201978]}, "properties": {"key": [674], "site_id": ["040191001"], "site_name": "SOUTH TUCSON", "address": "1601 S 6TH AVE, SOUTH TUCSON", "epa_region": "9", "state_name": "Arizona", "county_name": "Pima", "cbsa_name": "Tucson, AZ", "csa_title": "Tucson-Nogales, AZ", "monitor_count": "1"}}, {"type": "Feature", "geometry": {"type": "Point", "coordinates": [-110.878067, 32.204411]}, "properties": {"key": [681], "site_id": ["040191011"], "site_name": "22ND & CRAYCROFT", "address": "1237 S. BEVERLY , TUCSON", "epa_region": "9", "state_name": "Arizona", "county_name": "Pima", "cbsa_name": "Tucson, AZ", "csa_title": "Tucson-Nogales, AZ", "monitor_count": "3"}}, {"type": "Feature", "geometry": {"type": "Point", "coordinates": [-110.910619, 32.20739]}, "properties": {"key": [684], "site_id": ["040191014"], "site_name": "22ND & ALVERNON", "address": "22ND & ALVERNON, TUCSON", "epa_region": "9", "state_name": "Arizona", "county_name": "Pima", "cbsa_name": "Tucson, AZ", "csa_title": "Tucson-Nogales, AZ", "monitor_count": "1"}}, {"type": "Feature", "geometry": {"type": "Point", "coordinates": [-111.06352, 32.425261]}, "properties": {"key": [687], "site_id": ["040191018"], "site_name": "TANGERINE", "address": "12101 N CAMINO DE OESTE, TUCSON", "epa_region": "9", "state_name": "Arizona", "county_name": "Pima", "cbsa_name": "Tucson, AZ", "csa_title": "Tucson-Nogales, AZ", "monitor_count": "2"}}, {"type": "Feature", "geometry": {"type": "Point", "coordinates": [-110.774357, 32.04767]}, "properties": {"key": [689], "site_id": ["040191020"], "site_name": "FAIRGROUNDS", "address": "11330 S HOUGHTON, TUCSON", "epa_region": "9", "state_name": "Arizona", "county_name": "Pima", "cbsa_name": "Tucson, AZ", "csa_title": "Tucson-Nogales, AZ", "monitor_count": "1"}}, {"type": "Feature", "geometry": {"type": "Point", "coordinates": [-110.773889, 32.0475]}, "properties": {"key": [690], "site_id": ["040191021"], "site_name": "CHERRY & GLENN", "address": "2745 N CHERRY, TUCSON", "epa_region": "9", "state_name": "Arizona", "county_name": "Pima", "cbsa_name": "Tucson, AZ", "csa_title": "Tucson-Nogales, AZ", "monitor_count": "1"}}, {"type": "Feature", "geometry": {"type": "Point", "coordinates": [-110.982556, 32.125919]}, "properties": {"key": [695], "site_id": ["040191026"], "site_name": "SANTA CLARA", "address": "6910 SOUTH SANTA CLARA AVE", "epa_region": "9", "state_name": "Arizona", "county_name": "Pima", "cbsa_name": "Tucson, AZ", "csa_title": "Tucson-Nogales, AZ", "monitor_count": "2"}}, {"type": "Feature", "geometry": {"type": "Point", "coordinates": [-110.9823, 32.29515]}, "properties": {"key": [697], "site_id": ["040191028"], "site_name": "CHILDREN&#039;S PARK NCore", "address": "400 W RIVER ROAD", "epa_region": "9", "state_name": "Arizona", "county_name": "Pima", "cbsa_name": "Tucson, AZ", "csa_title": "Tucson-Nogales, AZ", "monitor_count": "7"}}, {"type": "Feature", "geometry": {"type": "Point", "coordinates": [-110.99644, 31.87952]}, "properties": {"key": [698], "site_id": ["040191030"], "site_name": "GREEN VALLEY  -REPLACES SITE 0007 245 W ESPERANZA", "address": "601 NORTH LA CANADA DRIVE", "epa_region": "9", "state_name": "Arizona", "county_name": "Pima", "cbsa_name": "Tucson, AZ", "csa_title": "Tucson-Nogales, AZ", "monitor_count": "2"}}, {"type": "Feature", "geometry": {"type": "Point", "coordinates": [-110.840582, 32.1912]}, "properties": {"key": [91460], "site_id": ["040191031"], "site_name": "GOLF LINKS", "address": "2601 SOUTH KOLB ROAD", "epa_region": "9", "state_name": "Arizona", "county_name": "Pima", "cbsa_name": "Tucson, AZ", "csa_title": "Tucson-Nogales, AZ", "monitor_count": "1"}}, {"type": "Feature", "geometry": {"type": "Point", "coordinates": [-110.980134, 32.172995]}, "properties": {"key": [91729], "site_id": ["040191032"], "site_name": "ROSE ELEMENTARY", "address": "710 W. MICHIGAN ST.", "epa_region": "9", "state_name": "Arizona", "county_name": "Pima", "cbsa_name": "Tucson, AZ", "csa_title": "Tucson-Nogales, AZ", "monitor_count": "1"}}, {"type": "Feature", "geometry": {"type": "Point", "coordinates": [-111.12716, 32.38082]}, "properties": {"key": [91726], "site_id": ["040191034"], "site_name": "COACHLINE", "address": "9597 N. COACHLINE BLVD", "epa_region": "9", "state_name": "Arizona", "county_name": "Pima", "cbsa_name": "Tucson, AZ", "csa_title": "Tucson-Nogales, AZ", "monitor_count": "1"}}, {"type": "Feature", "geometry": {"type": "Point", "coordinates": [-110.965293, 32.251843]}, "properties": {"key": [91732], "site_id": ["040191113"], "site_name": "GERONIMO", "address": "2498 N. GERONIMO", "epa_region": "9", "state_name": "Arizona", "county_name": "Pima", "cbsa_name": "Tucson, AZ", "csa_title": "Tucson-Nogales, AZ", "monitor_count": "1"}}, {"type": "Feature", "geometry": {"type": "Point", "coordinates": [-111.752222, 32.877583]}, "properties": {"key": [700], "site_id": ["040210001"], "site_name": "CASA GRANDE DOWNTOWN", "address": "401 N MARSHALL ST, CASA GRANDE", "epa_region": "9", "state_name": "Arizona", "county_name": "Pinal", "cbsa_name": "Phoenix-Mesa-Scottsdale, AZ", "csa_title": " ", "monitor_count": "3"}}, {"type": "Feature", "geometry": {"type": "Point", "coordinates": [-111.5436, 33.4214]}, "properties": {"key": [91677], "site_id": ["040213001"], "site_name": "A J MAINTENANCE YARD", "address": "305 E. SUPERSTITION BLVD, APACHE JUNCTION", "epa_region": "9", "state_name": "Arizona", "county_name": "Pinal", "cbsa_name": "Phoenix-Mesa-Scottsdale, AZ", "csa_title": " ", "monitor_count": "1"}}, {"type": "Feature", "geometry": {"type": "Point", "coordinates": [-111.503222, 33.421194]}, "properties": {"key": [710], "site_id": ["040213002"], "site_name": "APACHE JUNCTION FIRE STATION", "address": "3955 E SUPERSTITION BLVD, APACHE JUNCTION", "epa_region": "9", "state_name": "Arizona", "county_name": "Pinal", "cbsa_name": "Phoenix-Mesa-Scottsdale, AZ", "csa_title": " ", "monitor_count": "2"}}, {"type": "Feature", "geometry": {"type": "Point", "coordinates": [-111.76225, 32.954361]}, "properties": {"key": [91010], "site_id": ["040213003"], "site_name": "CASA GRANDE AIRPORT", "address": "660 W. AERO DR. CASA GRANDE", "epa_region": "9", "state_name": "Arizona", "county_name": "Pinal", "cbsa_name": "Phoenix-Mesa-Scottsdale, AZ", "csa_title": " ", "monitor_count": "1"}}, {"type": "Feature", "geometry": {"type": "Point", "coordinates": [-111.514833, 32.978556]}, "properties": {"key": [91678], "site_id": ["040213004"], "site_name": "COOLIDGE", "address": "212 E BROADWAY COOLIDGE", "epa_region": "9", "state_name": "Arizona", "county_name": "Pinal", "cbsa_name": "Phoenix-Mesa-Scottsdale, AZ", "csa_title": " ", "monitor_count": "2"}}, {"type": "Feature", "geometry": {"type": "Point", "coordinates": [-111.308056, 32.508306]}, "properties": {"key": [91681], "site_id": ["040213007"], "site_name": "PINAL AIR PARK", "address": "WATER WELL #2 PINAL AIR PARK RD MARANA", "epa_region": "9", "state_name": "Arizona", "county_name": "Pinal", "cbsa_name": "Phoenix-Mesa-Scottsdale, AZ", "csa_title": " ", "monitor_count": "2"}}, {"type": "Feature", "geometry": {"type": "Point", "coordinates": [-111.962, 32.881194]}, "properties": {"key": [91682], "site_id": ["040213008"], "site_name": "STANFIELD", "address": "36697 W PAPAGO DR STANFIELD", "epa_region": "9", "state_name": "Arizona", "county_name": "Pinal", "cbsa_name": "Phoenix-Mesa-Scottsdale, AZ", "csa_title": " ", "monitor_count": "1"}}, {"type": "Feature", "geometry": {"type": "Point", "coordinates": [-111.561111, 33.219111]}, "properties": {"key": [91684], "site_id": ["040213009"], "site_name": "COMBS", "address": "301 E COMBS RD QUEEN CREEK", "epa_region": "9", "state_name": "Arizona", "county_name": "Pinal", "cbsa_name": "Phoenix-Mesa-Scottsdale, AZ", "csa_title": " ", "monitor_count": "1"}}, {"type": "Feature", "geometry": {"type": "Point", "coordinates": [-111.5705, 32.891056]}, "properties": {"key": [91683], "site_id": ["040213011"], "site_name": "PINAL COUNTY HOUSING (aka ELEVEN MILE CORNER)", "address": "970 N ELEVEN MILE CORNER RD CASA GRANDE", "epa_region": "9", "state_name": "Arizona", "county_name": "Pinal", "cbsa_name": "Phoenix-Mesa-Scottsdale, AZ", "csa_title": " ", "monitor_count": "1"}}, {"type": "Feature", "geometry": {"type": "Point", "coordinates": [-111.554861, 32.757639]}, "properties": {"key": [93635], "site_id": ["040213014"], "site_name": "ELOY", "address": "801 N. MAIN ST", "epa_region": "9", "state_name": "Arizona", "county_name": "Pinal", "cbsa_name": "Phoenix-Mesa-Scottsdale, AZ", "csa_title": " ", "monitor_count": "2"}}, {"type": "Feature", "geometry": {"type": "Point", "coordinates": [-112.03705, 32.884761]}, "properties": {"key": [100877], "site_id": ["040213015"], "site_name": "HIDDEN VALLEY", "address": "43750 W. CAREFREE PLACE", "epa_region": "9", "state_name": "Arizona", "county_name": "Pinal", "cbsa_name": "Phoenix-Mesa-Scottsdale, AZ", "csa_title": " ", "monitor_count": "4"}}, {"type": "Feature", "geometry": {"type": "Point", "coordinates": [-112.05204, 33.06115]}, "properties": {"key": [104013], "site_id": ["040213016"], "site_name": "MARICOPA 1405", "address": "19955 N. Wilson Ave.", "epa_region": "9", "state_name": "Arizona", "county_name": "Pinal", "cbsa_name": "Phoenix-Mesa-Scottsdale, AZ", "csa_title": " ", "monitor_count": "1"}}, {"type": "Feature", "geometry": {"type": "Point", "coordinates": [-111.739999, 33.080087]}, "properties": {"key": [91281], "site_id": ["040217001"], "site_name": "Sacaton Air Monitoring Site", "address": "35 PIMA STREET, SACATON", "epa_region": "9", "state_name": "Arizona", "county_name": "Pinal", "cbsa_name": "Phoenix-Mesa-Scottsdale, AZ", "csa_title": " ", "monitor_count": "2"}}, {"type": "Feature", "geometry": {"type": "Point", "coordinates": [-111.885814, 33.117556]}, "properties": {"key": [93061], "site_id": ["040217004"], "site_name": "Casa Blanca Air Monitoring Site", "address": "CASA BLANCA/PRESCHOOL ROAD, BAPCHULE, AZ 85221", "epa_region": "9", "state_name": "Arizona", "county_name": "Pinal", "cbsa_name": "Phoenix-Mesa-Scottsdale, AZ", "csa_title": " ", "monitor_count": "1"}}, {"type": "Feature", "geometry": {"type": "Point", "coordinates": [-111.285594, 33.293465]}, "properties": {"key": [711], "site_id": ["040218001"], "site_name": "QUEEN VALLEY", "address": "10 S QUEEN ANN  QUEEN VALLEY", "epa_region": "9", "state_name": "Arizona", "county_name": "Pinal", "cbsa_name": "Phoenix-Mesa-Scottsdale, AZ", "csa_title": " ", "monitor_count": "1"}}, {"type": "Feature", "geometry": {"type": "Point", "coordinates": [-110.936718, 31.337204]}, "properties": {"key": [715], "site_id": ["040230004"], "site_name": "NOGALES POST OFFICE", "address": "300 N MORLEY AVE", "epa_region": "9", "state_name": "Arizona", "county_name": "Santa Cruz", "cbsa_name": "Nogales, AZ", "csa_title": "Tucson-Nogales, AZ", "monitor_count": "3"}}, {"type": "Feature", "geometry": {"type": "Point", "coordinates": [-112.463213, 34.612055]}, "properties": {"key": [103329], "site_id": ["040258034"], "site_name": "Prescott Pioneer Park", "address": "1200 Commerce Dr.", "epa_region": "9", "state_name": "Arizona", "county_name": "Yavapai", "cbsa_name": "Prescott, AZ", "csa_title": " ", "monitor_count": "1"}}, {"type": "Feature", "geometry": {"type": "Point", "coordinates": [-114.61444, 32.690278]}, "properties": {"key": [93808], "site_id": ["040278011"], "site_name": "YUMA SUPERSITE", "address": "2323 S ARIZONA AVE", "epa_region": "9", "state_name": "Arizona", "county_name": "Yuma", "cbsa_name": "Yuma, AZ", "csa_title": " ", "monitor_count": "3"}}, {"type": "Feature", "geometry": {"type": "Point", "coordinates": [-91.55896, 34.518515]}, "properties": {"key": [742], "site_id": ["050010011"], "site_name": "STUTTGART", "address": "1703 N BEURKLE - HWY 63", "epa_region": "6", "state_name": "Arkansas", "county_name": "Arkansas", "cbsa_name": " ", "csa_title": " ", "monitor_count": "1"}}, {"type": "Feature", "geometry": {"type": "Point", "coordinates": [-91.950377, 33.136862]}, "properties": {"key": [747], "site_id": ["050030005"], "site_name": "CROSSETT", "address": "1015 UNITY ROAD", "epa_region": "6", "state_name": "Arkansas", "county_name": "Ashley", "cbsa_name": " ", "csa_title": " ", "monitor_count": "1"}}, {"type": "Feature", "geometry": {"type": "Point", "coordinates": [-93.0988, 34.1795]}, "properties": {"key": [96317], "site_id": ["050199991"], "site_name": "Caddo Valley", "address": "Lower Lake Recreation Area, Caddo Valley, AR 71923", "epa_region": "6", "state_name": "Arkansas", "county_name": "Clark", "cbsa_name": "Arkadelphia, AR", "csa_title": " ", "monitor_count": "1"}}, {"type": "Feature", "geometry": {"type": "Point", "coordinates": [-90.193141, 35.197288]}, "properties": {"key": [763], "site_id": ["050350005"], "site_name": "MARION", "address": "LH POLK AND COLONIAL DRIVE", "epa_region": "6", "state_name": "Arkansas", "county_name": "Crittenden", "cbsa_name": "Memphis, TN-MS-AR", "csa_title": "Memphis-Forrest City, TN-MS-AR", "monitor_count": "3"}}, {"type": "Feature", "geometry": {"type": "Point", "coordinates": [-93.000178, 34.469441]}, "properties": {"key": [91528], "site_id": ["050510003"], "site_name": "HOT SPRINGS", "address": "300 WERNER ST.", "epa_region": "6", "state_name": "Arkansas", "county_name": "Garland", "cbsa_name": "Hot Springs, AR", "csa_title": "Hot Springs-Malvern, AR", "monitor_count": "2"}}, {"type": "Feature", "geometry": {"type": "Point", "coordinates": [-91.188914, 35.637292]}, "properties": {"key": [93053], "site_id": ["050670001"], "site_name": "NEWPORT", "address": "7648 VICTORY BLVD", "epa_region": "6", "state_name": "Arkansas", "county_name": "Jackson", "cbsa_name": " ", "csa_title": " ", "monitor_count": "1"}}, {"type": "Feature", "geometry": {"type": "Point", "coordinates": [-93.20826, 35.832726]}, "properties": {"key": [805], "site_id": ["051010002"], "site_name": "DEER", "address": "HWY 16", "epa_region": "6", "state_name": "Arkansas", "county_name": "Newton", "cbsa_name": "Harrison, AR", "csa_title": " ", "monitor_count": "1"}}, {"type": "Feature", "geometry": {"type": "Point", "coordinates": [-94.226234, 34.583699]}, "properties": {"key": [812], "site_id": ["051130002"], "site_name": "MENA", "address": "HORNBECK ROAD - MENA", "epa_region": "6", "state_name": "Arkansas", "county_name": "Polk", "cbsa_name": " ", "csa_title": " ", "monitor_count": "1"}}, {"type": "Feature", "geometry": {"type": "Point", "coordinates": [-94.143521, 34.454514]}, "properties": {"key": [92253], "site_id": ["051130003"], "site_name": "EAGLE MOUNTAIN", "address": "463 POLK 631", "epa_region": "6", "state_name": "Arkansas", "county_name": "Polk", "cbsa_name": " ", "csa_title": " ", "monitor_count": "1"}}, {"type": "Feature", "geometry": {"type": "Point", "coordinates": [-92.281296, 34.756189]}, "properties": {"key": [821], "site_id": ["051190007"], "site_name": "PARR", "address": "PIKE AVE AT RIVER ROAD", "epa_region": "6", "state_name": "Arkansas", "county_name": "Pulaski", "cbsa_name": "Little Rock-North Little Rock-Conway, AR", "csa_title": "Little Rock-North Little Rock, AR", "monitor_count": "8"}}, {"type": "Feature", "geometry": {"type": "Point", "coordinates": [-92.260581, 34.835721]}, "properties": {"key": [824], "site_id": ["051191002"], "site_name": "NLR AIRPORT", "address": "REMOUNT ROAD N. LITTLE ROCK, ARKANSAS", "epa_region": "6", "state_name": "Arkansas", "county_name": "Pulaski", "cbsa_name": "Little Rock-North Little Rock-Conway, AR", "csa_title": "Little Rock-North Little Rock, AR", "monitor_count": "1"}}, {"type": "Feature", "geometry": {"type": "Point", "coordinates": [-92.320064, 34.744931]}, "properties": {"key": [827], "site_id": ["051191007"], "site_name": "VA HOSPITAL", "address": "4300 BLOCK OF WEST 7TH ST", "epa_region": "6", "state_name": "Arkansas", "county_name": "Pulaski", "cbsa_name": "Little Rock-North Little Rock-Conway, AR", "csa_title": "Little Rock-North Little Rock, AR", "monitor_count": "1"}}, {"type": "Feature", "geometry": {"type": "Point", "coordinates": [-92.328697, 34.681343]}, "properties": {"key": [828], "site_id": ["051191008"], "site_name": "DOYLE SPRINGS ROAD", "address": "DOYLE SPRINGS ROAD", "epa_region": "6", "state_name": "Arkansas", "county_name": "Pulaski", "cbsa_name": "Little Rock-North Little Rock-Conway, AR", "csa_title": "Little Rock-North Little Rock, AR", "monitor_count": "1"}}, {"type": "Feature", "geometry": {"type": "Point", "coordinates": [-92.669619, 33.220274]}, "properties": {"key": [846], "site_id": ["051390006"], "site_name": "EL DORADO", "address": "UNION MEMORIAL HOSPITAL, ELDORADO", "epa_region": "6", "state_name": "Arkansas", "county_name": "Union", "cbsa_name": "El Dorado, AR", "csa_title": " ", "monitor_count": "1"}}, {"type": "Feature", "geometry": {"type": "Point", "coordinates": [-94.116827, 36.1797]}, "properties": {"key": [93463], "site_id": ["051430005"], "site_name": "SPRINGDALE", "address": "600 SOUTH OLD MISSOURI ROAD", "epa_region": "6", "state_name": "Arkansas", "county_name": "Washington", "cbsa_name": "Fayetteville-Springdale-Rogers, AR-MO", "csa_title": " ", "monitor_count": "3"}}, {"type": "Feature", "geometry": {"type": "Point", "coordinates": [-94.167436, 36.011703]}, "properties": {"key": [96564], "site_id": ["051430006"], "site_name": "Fayetteville Airport", "address": "429 Ernest Lancaster Dr.", "epa_region": "6", "state_name": "Arkansas", "county_name": "Washington", "cbsa_name": "Fayetteville-Springdale-Rogers, AR-MO", "csa_title": " ", "monitor_count": "1"}}, {"type": "Feature", "geometry": {"type": "Point", "coordinates": [-121.784217, 37.687526]}, "properties": {"key": [860], "site_id": ["060010007"], "site_name": "Livermore", "address": "793 Rincon Ave.", "epa_region": "9", "state_name": "California", "county_name": "Alameda", "cbsa_name": "San Francisco-Oakland-Hayward, CA", "csa_title": "San Jose-San Francisco-Oakland, CA", "monitor_count": "3"}}, {"type": "Feature", "geometry": {"type": "Point", "coordinates": [-122.169935, 37.743065]}, "properties": {"key": [93907], "site_id": ["060010009"], "site_name": "Oakland", "address": "9925 International Blvd", "epa_region": "9", "state_name": "California", "county_name": "Alameda", "cbsa_name": "San Francisco-Oakland-Hayward, CA", "csa_title": "San Jose-San Francisco-Oakland, CA", "monitor_count": "4"}}, {"type": "Feature", "geometry": {"type": "Point", "coordinates": [-122.282347, 37.814781]}, "properties": {"key": [94938], "site_id": ["060010011"], "site_name": "Oakland West", "address": "1100 21st Street", "epa_region": "9", "state_name": "California", "county_name": "Alameda", "cbsa_name": "San Francisco-Oakland-Hayward, CA", "csa_title": "San Jose-San Francisco-Oakland, CA", "monitor_count": "5"}}, {"type": "Feature", "geometry": {"type": "Point", "coordinates": [-122.263376, 37.793624]}, "properties": {"key": [97584], "site_id": ["060010012"], "site_name": "Laney College", "address": "Laney College Eighth St. parking lot Aisle J", "epa_region": "9", "state_name": "California", "county_name": "Alameda", "cbsa_name": "San Francisco-Oakland-Hayward, CA", "csa_title": "San Jose-San Francisco-Oakland, CA", "monitor_count": "3"}}, {"type": "Feature", "geometry": {"type": "Point", "coordinates": [-122.302741, 37.864767]}, "properties": {"key": [102205], "site_id": ["060010013"], "site_name": "Berkeley Aquatic Park", "address": "1 Bolivar Dr", "epa_region": "9", "state_name": "California", "county_name": "Alameda", "cbsa_name": "San Francisco-Oakland-Hayward, CA", "csa_title": "San Jose-San Francisco-Oakland, CA", "monitor_count": "4"}}, {"type": "Feature", "geometry": {"type": "Point", "coordinates": [-122.031547, 37.654456]}, "properties": {"key": [864], "site_id": ["060012001"], "site_name": "Hayward", "address": "3466 LA MESA DR.", "epa_region": "9", "state_name": "California", "county_name": "Alameda", "cbsa_name": "San Francisco-Oakland-Hayward, CA", "csa_title": "San Jose-San Francisco-Oakland, CA", "monitor_count": "1"}}, {"type": "Feature", "geometry": {"type": "Point", "coordinates": [-120.763515, 38.339905]}, "properties": {"key": [870], "site_id": ["060050002"], "site_name": "Jackson-Clinton Road", "address": " 201 CLINTON ROAD, JACKSON, CA 95642", "epa_region": "9", "state_name": "California", "county_name": "Amador", "cbsa_name": " ", "csa_title": " ", "monitor_count": "1"}}, {"type": "Feature", "geometry": {"type": "Point", "coordinates": [-121.618836, 39.714041]}, "properties": {"key": [879], "site_id": ["060070007"], "site_name": "Paradise - Airport", "address": "4405 AIRPORT RD-PARADISE CA", "epa_region": "9", "state_name": "California", "county_name": "Butte", "cbsa_name": "Chico, CA", "csa_title": " ", "monitor_count": "1"}}, {"type": "Feature", "geometry": {"type": "Point", "coordinates": [-121.84162, 39.761538]}, "properties": {"key": [96599], "site_id": ["060070008"], "site_name": "Chico-East Avenue", "address": "984 East Avenue, Chico", "epa_region": "9", "state_name": "California", "county_name": "Butte", "cbsa_name": "Chico, CA", "csa_title": " ", "monitor_count": "6"}}, {"type": "Feature", "geometry": {"type": "Point", "coordinates": [-120.681567, 38.201852]}, "properties": {"key": [884], "site_id": ["060090001"], "site_name": "San Andreas-Gold Strike Road", "address": "501 GOLD STRIKE ROAD, SAN ANDREAS", "epa_region": "9", "state_name": "California", "county_name": "Calaveras", "cbsa_name": " ", "csa_title": " ", "monitor_count": "3"}}, {"type": "Feature", "geometry": {"type": "Point", "coordinates": [-122.281803, 39.021221]}, "properties": {"key": [93707], "site_id": ["060110007"], "site_name": "Cortina Indian Rancheria", "address": "CORTINA INDIAN RANCHERIA, SPRING VALLEY RD, WILLIAMS", "epa_region": "9", "state_name": "California", "county_name": "Colusa", "cbsa_name": " ", "csa_title": " ", "monitor_count": "1"}}, {"type": "Feature", "geometry": {"type": "Point", "coordinates": [-122.017728, 39.202935]}, "properties": {"key": [888], "site_id": ["060111002"], "site_name": "Colusa-Sunrise Blvd", "address": "100 SUNRISE BLVD., COLUSA", "epa_region": "9", "state_name": "California", "county_name": "Colusa", "cbsa_name": " ", "csa_title": " ", "monitor_count": "3"}}, {"type": "Feature", "geometry": {"type": "Point", "coordinates": [-122.026154, 37.936013]}, "properties": {"key": [890], "site_id": ["060130002"], "site_name": "Concord", "address": "2956-A TREAT BOULEVARD", "epa_region": "9", "state_name": "California", "county_name": "Contra Costa", "cbsa_name": "San Francisco-Oakland-Hayward, CA", "csa_title": "San Jose-San Francisco-Oakland, CA", "monitor_count": "6"}}, {"type": "Feature", "geometry": {"type": "Point", "coordinates": [-122.364852, 37.948172]}, "properties": {"key": [894], "site_id": ["060130006"], "site_name": "Richmond - 7th St.", "address": "1065 7TH ST., RICHMOND", "epa_region": "9", "state_name": "California", "county_name": "Contra Costa", "cbsa_name": "San Francisco-Oakland-Hayward, CA", "csa_title": "San Jose-San Francisco-Oakland, CA", "monitor_count": "1"}}, {"type": "Feature", "geometry": {"type": "Point", "coordinates": [-122.233229, 38.05492]}, "properties": {"key": [895], "site_id": ["060131001"], "site_name": "Crockett - Kendall Ave", "address": "KENDALL AVE,Crockett", "epa_region": "9", "state_name": "California", "county_name": "Contra Costa", "cbsa_name": "San Francisco-Oakland-Hayward, CA", "csa_title": "San Jose-San Francisco-Oakland, CA", "monitor_count": "1"}}, {"type": "Feature", "geometry": {"type": "Point", "coordinates": [-121.641918, 38.006311]}, "properties": {"key": [896], "site_id": ["060131002"], "site_name": "Bethel Island", "address": "5551 BETHEL ISLAND RD", "epa_region": "9", "state_name": "California", "county_name": "Contra Costa", "cbsa_name": "San Francisco-Oakland-Hayward, CA", "csa_title": "San Jose-San Francisco-Oakland, CA", "monitor_count": "5"}}, {"type": "Feature", "geometry": {"type": "Point", "coordinates": [-122.356811, 37.9604]}, "properties": {"key": [91266], "site_id": ["060131004"], "site_name": "San Pablo", "address": "1865 D RUMRILL BLVD, San Pablo", "epa_region": "9", "state_name": "California", "county_name": "Contra Costa", "cbsa_name": "San Francisco-Oakland-Hayward, CA", "csa_title": "San Jose-San Francisco-Oakland, CA", "monitor_count": "7"}}, {"type": "Feature", "geometry": {"type": "Point", "coordinates": [-122.134467, 38.012816]}, "properties": {"key": [898], "site_id": ["060132001"], "site_name": "Martinez - Jones St.", "address": "521 JONES ST, Martinez", "epa_region": "9", "state_name": "California", "county_name": "Contra Costa", "cbsa_name": "San Francisco-Oakland-Hayward, CA", "csa_title": "San Jose-San Francisco-Oakland, CA", "monitor_count": "1"}}, {"type": "Feature", "geometry": {"type": "Point", "coordinates": [-121.934188, 37.743649]}, "properties": {"key": [96636], "site_id": ["060132007"], "site_name": "San Ramon", "address": "9885 Alcosta BLVD", "epa_region": "9", "state_name": "California", "county_name": "Contra Costa", "cbsa_name": "San Francisco-Oakland-Hayward, CA", "csa_title": "San Jose-San Francisco-Oakland, CA", "monitor_count": "2"}}, {"type": "Feature", "geometry": {"type": "Point", "coordinates": [-124.1998, 41.7644]}, "properties": {"key": [908], "site_id": ["060150006"], "site_name": "CRESCENT CITY-NORTHCREST", "address": "880 NORTHCREST DRIVE, CRESCENT CITY", "epa_region": "9", "state_name": "California", "county_name": "Del Norte", "cbsa_name": "Crescent City, CA", "csa_title": " ", "monitor_count": "1"}}, {"type": "Feature", "geometry": {"type": "Point", "coordinates": [-120.821916, 38.725282]}, "properties": {"key": [917], "site_id": ["060170010"], "site_name": "Placerville-Gold Nugget Way", "address": " 3111 GOLD NUGGET WAY, PLACERVILLE, CA", "epa_region": "9", "state_name": "California", "county_name": "El Dorado", "cbsa_name": "Sacramento--Roseville--Arden-Arcade, CA", "csa_title": "Sacramento-Roseville, CA", "monitor_count": "1"}}, {"type": "Feature", "geometry": {"type": "Point", "coordinates": [-119.970609, 38.944979]}, "properties": {"key": [918], "site_id": ["060170011"], "site_name": "South Lake Tahoe-Sandy Way", "address": " 3337 Sandy Way, South Lake Tahoe, CA", "epa_region": "9", "state_name": "California", "county_name": "El Dorado", "cbsa_name": "Sacramento--Roseville--Arden-Arcade, CA", "csa_title": "Sacramento-Roseville, CA", "monitor_count": "1"}}, {"type": "Feature", "geometry": {"type": "Point", "coordinates": [-120.033084, 38.81161]}, "properties": {"key": [919], "site_id": ["060170012"], "site_name": "Echo Summit", "address": "21200 HWY 50 -LITTLE NORWAY/ECHO SUMMIT", "epa_region": "9", "state_name": "California", "county_name": "El Dorado", "cbsa_name": "Sacramento--Roseville--Arden-Arcade, CA", "csa_title": "Sacramento-Roseville, CA", "monitor_count": "1"}}, {"type": "Feature", "geometry": {"type": "Point", "coordinates": [-121.003373, 38.890941]}, "properties": {"key": [920], "site_id": ["060170020"], "site_name": "Cool", "address": "1400 AMERICAN RIVER TRAIL, COOL", "epa_region": "9", "state_name": "California", "county_name": "El Dorado", "cbsa_name": "Sacramento--Roseville--Arden-Arcade, CA", "csa_title": "Sacramento-Roseville, CA", "monitor_count": "1"}}, {"type": "Feature", "geometry": {"type": "Point", "coordinates": [-119.741966, 36.705506]}, "properties": {"key": [929], "site_id": ["060190007"], "site_name": "Fresno-Drummond", "address": "4706 E. DRUMMOND ST., FRESNO", "epa_region": "9", "state_name": "California", "county_name": "Fresno", "cbsa_name": "Fresno, CA", "csa_title": "Fresno-Madera, CA", "monitor_count": "4"}}, {"type": "Feature", "geometry": {"type": "Point", "coordinates": [-119.774174, 36.785322]}, "properties": {"key": [96528], "site_id": ["060190011"], "site_name": "Fresno - Garland", "address": "3727 N FIRST ST, FRESNO", "epa_region": "9", "state_name": "California", "county_name": "Fresno", "cbsa_name": "Fresno, CA", "csa_title": "Fresno-Madera, CA", "monitor_count": "11"}}, {"type": "Feature", "geometry": {"type": "Point", "coordinates": [-119.875415, 36.841331]}, "properties": {"key": [936], "site_id": ["060190242"], "site_name": "Fresno-Sky Park", "address": "SIERRA SKYPARK#2-BLYTHE & CHNNLT, FRESNO", "epa_region": "9", "state_name": "California", "county_name": "Fresno", "cbsa_name": "Fresno, CA", "csa_title": "Fresno-Madera, CA", "monitor_count": "2"}}, {"type": "Feature", "geometry": {"type": "Point", "coordinates": [-119.658339, 36.985119]}, "properties": {"key": [100184], "site_id": ["060190500"], "site_name": "Table Mountain Air Monitoring Site", "address": "Milerton Road and Winchell Cove Road", "epa_region": "9", "state_name": "California", "county_name": "Fresno", "cbsa_name": "Fresno, CA", "csa_title": "Fresno-Madera, CA", "monitor_count": "3"}}, {"type": "Feature", "geometry": {"type": "Point", "coordinates": [-120.382331, 36.634225]}, "properties": {"key": [95489], "site_id": ["060192009"], "site_name": "Tranquillity", "address": "32650 West Adams Avenue Tranquillity CA 93668", "epa_region": "9", "state_name": "California", "county_name": "Fresno", "cbsa_name": "Fresno, CA", "csa_title": "Fresno-Madera, CA", "monitor_count": "3"}}, {"type": "Feature", "geometry": {"type": "Point", "coordinates": [-119.7775, 36.710833]}, "properties": {"key": [101123], "site_id": ["060192016"], "site_name": "Fresno-Foundry", "address": "2482 Foundry Park Ave", "epa_region": "9", "state_name": "California", "county_name": "Fresno", "cbsa_name": "Fresno, CA", "csa_title": "Fresno-Madera, CA", "monitor_count": "1"}}, {"type": "Feature", "geometry": {"type": "Point", "coordinates": [-119.504569, 36.59745]}, "properties": {"key": [942], "site_id": ["060194001"], "site_name": "Parlier", "address": "9240 S. RIVERBEND, PARLIER 93648", "epa_region": "9", "state_name": "California", "county_name": "Fresno", "cbsa_name": "Fresno, CA", "csa_title": "Fresno-Madera, CA", "monitor_count": "2"}}, {"type": "Feature", "geometry": {"type": "Point", "coordinates": [-119.717356, 36.819111]}, "properties": {"key": [943], "site_id": ["060195001"], "site_name": "Clovis-Villa", "address": "908 N VILLA AVE, CLOVIS", "epa_region": "9", "state_name": "California", "county_name": "Fresno", "cbsa_name": "Fresno, CA", "csa_title": "Fresno-Madera, CA", "monitor_count": "7"}}, {"type": "Feature", "geometry": {"type": "Point", "coordinates": [-119.733, 36.72639]}, "properties": {"key": [944], "site_id": ["060195025"], "site_name": "Fresno-Pacific", "address": "1716 WINERY, FRESNO CA 93726", "epa_region": "9", "state_name": "California", "county_name": "Fresno", "cbsa_name": "Fresno, CA", "csa_title": "Fresno-Madera, CA", "monitor_count": "1"}}, {"type": "Feature", "geometry": {"type": "Point", "coordinates": [-122.191903, 39.533761]}, "properties": {"key": [93464], "site_id": ["060210003"], "site_name": "Willows-Colusa Street", "address": "720 N Colusa Street, Willows", "epa_region": "9", "state_name": "California", "county_name": "Glenn", "cbsa_name": " ", "csa_title": " ", "monitor_count": "2"}}, {"type": "Feature", "geometry": {"type": "Point", "coordinates": [-124.1775, 40.776944]}, "properties": {"key": [93538], "site_id": ["060231004"], "site_name": "Jacobs", "address": "717 SOUTH AVENUE", "epa_region": "9", "state_name": "California", "county_name": "Humboldt", "cbsa_name": "Eureka-Arcata-Fortuna, CA", "csa_title": " ", "monitor_count": "7"}}, {"type": "Feature", "geometry": {"type": "Point", "coordinates": [-124.20139, 40.71528]}, "properties": {"key": [96282], "site_id": ["060231005"], "site_name": "Humboldt Hill", "address": "170 meters SE of Donna Dr. & Humboldt Hill Rd., Eureka, CA", "epa_region": "9", "state_name": "California", "county_name": "Humboldt", "cbsa_name": "Eureka-Arcata-Fortuna, CA", "csa_title": " ", "monitor_count": "7"}}, {"type": "Feature", "geometry": {"type": "Point", "coordinates": [-115.484144, 32.676186]}, "properties": {"key": [959], "site_id": ["060250005"], "site_name": "Calexico-Ethel Street", "address": "1029 ETHEL ST, CALEXICO HIGH SCHOOL", "epa_region": "9", "state_name": "California", "county_name": "Imperial", "cbsa_name": "El Centro, CA", "csa_title": " ", "monitor_count": "8"}}, {"type": "Feature", "geometry": {"type": "Point", "coordinates": [-115.53917, 32.97833]}, "properties": {"key": [91801], "site_id": ["060250007"], "site_name": "Brawley-220 Main Street", "address": "220 MAIN ST., STE 204, BRAWLEY", "epa_region": "9", "state_name": "California", "county_name": "Imperial", "cbsa_name": "El Centro, CA", "csa_title": " ", "monitor_count": "2"}}, {"type": "Feature", "geometry": {"type": "Point", "coordinates": [-115.56306, 32.79222]}, "properties": {"key": [963], "site_id": ["060251003"], "site_name": "El Centro-9th Street", "address": "150 9TH ST., EL CENTRO", "epa_region": "9", "state_name": "California", "county_name": "Imperial", "cbsa_name": "El Centro, CA", "csa_title": " ", "monitor_count": "4"}}, {"type": "Feature", "geometry": {"type": "Point", "coordinates": [-115.62361, 33.0325]}, "properties": {"key": [968], "site_id": ["060254003"], "site_name": "Westmorland", "address": "202 W FIRST STREET, WESTMORLAND", "epa_region": "9", "state_name": "California", "county_name": "Imperial", "cbsa_name": "El Centro, CA", "csa_title": " ", "monitor_count": "2"}}, {"type": "Feature", "geometry": {"type": "Point", "coordinates": [-115.54528, 33.213611]}, "properties": {"key": [969], "site_id": ["060254004"], "site_name": "Niland-English Road", "address": "7711 ENGLISH ROAD, NILAND", "epa_region": "9", "state_name": "California", "county_name": "Imperial", "cbsa_name": "El Centro, CA", "csa_title": " ", "monitor_count": "2"}}, {"type": "Feature", "geometry": {"type": "Point", "coordinates": [-118.330783, 37.360684]}, "properties": {"key": [971], "site_id": ["060270002"], "site_name": "White Mountain Research Center - Owens Valley Lab", "address": "WMRC/NCORE, 3000 E. LINE ST., BISHOP, CA. 93514", "epa_region": "9", "state_name": "California", "county_name": "Inyo", "cbsa_name": " ", "csa_title": " ", "monitor_count": "8"}}, {"type": "Feature", "geometry": {"type": "Point", "coordinates": [-118.057809, 36.609003]}, "properties": {"key": [973], "site_id": ["060270004"], "site_name": "Lone Pine PM", "address": "Lone Pine (PM @ Hospital), 501 E. LOCUST ST., LONE PINE", "epa_region": "9", "state_name": "California", "county_name": "Inyo", "cbsa_name": " ", "csa_title": " ", "monitor_count": "1"}}, {"type": "Feature", "geometry": {"type": "Point", "coordinates": [-117.993002, 36.267536]}, "properties": {"key": [989], "site_id": ["060270021"], "site_name": "Olancha", "address": "OLANCHA; 131 WALKER CREEK RD. - 1 MILE E OF OLANCHA", "epa_region": "9", "state_name": "California", "county_name": "Inyo", "cbsa_name": " ", "csa_title": " ", "monitor_count": "1"}}, {"type": "Feature", "geometry": {"type": "Point", "coordinates": [-117.95512, 36.326172]}, "properties": {"key": [990], "site_id": ["060270022"], "site_name": "Dirty Socks", "address": "DIRTY SOCKS, HWY 190", "epa_region": "9", "state_name": "California", "county_name": "Inyo", "cbsa_name": " ", "csa_title": " ", "monitor_count": "1"}}, {"type": "Feature", "geometry": {"type": "Point", "coordinates": [-117.897609, 36.366319]}, "properties": {"key": [992], "site_id": ["060270025"], "site_name": "Shell Cut", "address": "SHELL CUT, HIGHWAY 190", "epa_region": "9", "state_name": "California", "county_name": "Inyo", "cbsa_name": " ", "csa_title": " ", "monitor_count": "1"}}, {"type": "Feature", "geometry": {"type": "Point", "coordinates": [-118.01068, 36.361932]}, "properties": {"key": [91908], "site_id": ["060270026"], "site_name": "Bill Stanley", "address": "BILL STANLEY, US HWY 395, 17 miles south of Lone Pine", "epa_region": "9", "state_name": "California", "county_name": "Inyo", "cbsa_name": " ", "csa_title": " ", "monitor_count": "1"}}, {"type": "Feature", "geometry": {"type": "Point", "coordinates": [-117.941827, 36.54314]}, "properties": {"key": [94567], "site_id": ["060270028"], "site_name": "Lizard Tail", "address": "LIZARD TAIL, NE Shoreline Owens Lake", "epa_region": "9", "state_name": "California", "county_name": "Inyo", "cbsa_name": " ", "csa_title": " ", "monitor_count": "1"}}, {"type": "Feature", "geometry": {"type": "Point", "coordinates": [-117.9911, 36.54287]}, "properties": {"key": [94937], "site_id": ["060270029"], "site_name": "North Beach", "address": "NORTH BEACH, North Shoreline Owens Lake", "epa_region": "9", "state_name": "California", "county_name": "Inyo", "cbsa_name": " ", "csa_title": " ", "monitor_count": "1"}}, {"type": "Feature", "geometry": {"type": "Point", "coordinates": [-117.851888, 36.458104]}, "properties": {"key": [96147], "site_id": ["060270030"], "site_name": "Mill Site", "address": "MILL SITE, East Shoreline Owens Lake, near Highway 136", "epa_region": "9", "state_name": "California", "county_name": "Inyo", "cbsa_name": " ", "csa_title": " ", "monitor_count": "1"}}, {"type": "Feature", "geometry": {"type": "Point", "coordinates": [-116.847778, 36.508611]}, "properties": {"key": [993], "site_id": ["060270101"], "site_name": "Death Valley National Park", "address": "DEATH VALLEY NM, DEATH VALLEY, CA", "epa_region": "9", "state_name": "California", "county_name": "Inyo", "cbsa_name": " ", "csa_title": " ", "monitor_count": "1"}}, {"type": "Feature", "geometry": {"type": "Point", "coordinates": [-117.943927, 36.049402]}, "properties": {"key": [994], "site_id": ["060271001"], "site_name": "Coso Junction", "address": "COSO JUNCTION REST AREA, HWY 395", "epa_region": "9", "state_name": "California", "county_name": "Inyo", "cbsa_name": " ", "csa_title": " ", "monitor_count": "1"}}, {"type": "Feature", "geometry": {"type": "Point", "coordinates": [-117.871036, 36.487823]}, "properties": {"key": [996], "site_id": ["060271003"], "site_name": "Keeler", "address": "KEELER, 190 Cerro Gordo Road", "epa_region": "9", "state_name": "California", "county_name": "Inyo", "cbsa_name": " ", "csa_title": " ", "monitor_count": "5"}}, {"type": "Feature", "geometry": {"type": "Point", "coordinates": [-118.049167, 36.595556]}, "properties": {"key": [92674], "site_id": ["060271018"], "site_name": "Lone Pine Paiute-Shoshone Reservation", "address": "1101 E-SHA LANE", "epa_region": "9", "state_name": "California", "county_name": "Inyo", "cbsa_name": " ", "csa_title": " ", "monitor_count": "1"}}, {"type": "Feature", "geometry": {"type": "Point", "coordinates": [-118.417478, 37.362137]}, "properties": {"key": [92502], "site_id": ["060271023"], "site_name": "Bishop Tribe EMO", "address": "50 TU SU LANE", "epa_region": "9", "state_name": "California", "county_name": "Inyo", "cbsa_name": " ", "csa_title": " ", "monitor_count": "2"}}, {"type": "Feature", "geometry": {"type": "Point", "coordinates": [-118.226677, 36.834957]}, "properties": {"key": [92675], "site_id": ["060271028"], "site_name": "Fort Independence Indian Community", "address": "789 N. WILLOW STREET, INDEPENDENCE", "epa_region": "9", "state_name": "California", "county_name": "Inyo", "cbsa_name": " ", "csa_title": " ", "monitor_count": "1"}}, {"type": "Feature", "geometry": {"type": "Point", "coordinates": [-118.852037, 35.346094]}, "properties": {"key": [1005], "site_id": ["060290007"], "site_name": "Edison", "address": "JOHNSON FARM, EDISON, CA. 93320", "epa_region": "9", "state_name": "California", "county_name": "Kern", "cbsa_name": "Bakersfield, CA", "csa_title": " ", "monitor_count": "2"}}, {"type": "Feature", "geometry": {"type": "Point", "coordinates": [-119.404826, 35.05443]}, "properties": {"key": [1006], "site_id": ["060290008"], "site_name": "Maricopa", "address": "755 Stanislaus St., Maricopa CA 93352", "epa_region": "9", "state_name": "California", "county_name": "Kern", "cbsa_name": "Bakersfield, CA", "csa_title": " ", "monitor_count": "1"}}, {"type": "Feature", "geometry": {"type": "Point", "coordinates": [-119.015009, 35.385574]}, "properties": {"key": [1008], "site_id": ["060290010"], "site_name": "Bakersfield-Golden/M St", "address": "2820 M St., Bakersfield, CA 93301", "epa_region": "9", "state_name": "California", "county_name": "Kern", "cbsa_name": "Bakersfield, CA", "csa_title": " ", "monitor_count": "2"}}, {"type": "Feature", "geometry": {"type": "Point", "coordinates": [-118.147294, 35.050551]}, "properties": {"key": [1009], "site_id": ["060290011"], "site_name": "Mojave", "address": " 923 POOLE STREET, MOJAVE, CA 93501", "epa_region": "9", "state_name": "California", "county_name": "Kern", "cbsa_name": "Bakersfield, CA", "csa_title": " ", "monitor_count": "3"}}, {"type": "Feature", "geometry": {"type": "Point", "coordinates": [-119.063542, 35.356601]}, "properties": {"key": [1012], "site_id": ["060290014"], "site_name": "Bakersfield-California", "address": "5558 California Ave., Bakersfield CA 93309", "epa_region": "9", "state_name": "California", "county_name": "Kern", "cbsa_name": "Bakersfield, CA", "csa_title": " ", "monitor_count": "8"}}, {"type": "Feature", "geometry": {"type": "Point", "coordinates": [-117.67296, 35.62109]}, "properties": {"key": [1013], "site_id": ["060290015"], "site_name": "Ridgecrest-California Ave", "address": "100 WEST CALIFORNIA AVE, RIDGECREST, CA", "epa_region": "9", "state_name": "California", "county_name": "Kern", "cbsa_name": "Bakersfield, CA", "csa_title": " ", "monitor_count": "2"}}, {"type": "Feature", "geometry": {"type": "Point", "coordinates": [-118.999167, 35.322928]}, "properties": {"key": [1014], "site_id": ["060290016"], "site_name": "Bakersfield-Airport (Planz)", "address": "410 E. PLANZ RD. BAKERSFIELD, CA  93307", "epa_region": "9", "state_name": "California", "county_name": "Kern", "cbsa_name": "Bakersfield, CA", "csa_title": " ", "monitor_count": "1"}}, {"type": "Feature", "geometry": {"type": "Point", "coordinates": [-118.139312, 35.72778]}, "properties": {"key": [94785], "site_id": ["060290017"], "site_name": "Canebrake", "address": "3147 Highway 178, Canebrake", "epa_region": "9", "state_name": "California", "county_name": "Kern", "cbsa_name": "Bakersfield, CA", "csa_title": " ", "monitor_count": "1"}}, {"type": "Feature", "geometry": {"type": "Point", "coordinates": [-117.715066, 35.642943]}, "properties": {"key": [104118], "site_id": ["060290018"], "site_name": "Ridgecrest-Ward", "address": "2051 Ward, Ridgecrest CA", "epa_region": "9", "state_name": "California", "county_name": "Kern", "cbsa_name": "Bakersfield, CA", "csa_title": " ", "monitor_count": "2"}}, {"type": "Feature", "geometry": {"type": "Point", "coordinates": [-119.016765, 35.438869]}, "properties": {"key": [1017], "site_id": ["060290232"], "site_name": "Oildale", "address": "3311 Manor St, Oildale CA 93308", "epa_region": "9", "state_name": "California", "county_name": "Kern", "cbsa_name": "Bakersfield, CA", "csa_title": " ", "monitor_count": "2"}}, {"type": "Feature", "geometry": {"type": "Point", "coordinates": [-119.000974, 35.331302]}, "properties": {"key": [96798], "site_id": ["060292012"], "site_name": "Bakersfield-Muni", "address": "2000 South Union Ave. Bakersfield CA  93307", "epa_region": "9", "state_name": "California", "county_name": "Kern", "cbsa_name": "Bakersfield, CA", "csa_title": " ", "monitor_count": "3"}}, {"type": "Feature", "geometry": {"type": "Point", "coordinates": [-118.789424, 35.23668]}, "properties": {"key": [95499], "site_id": ["060295002"], "site_name": "Arvin-Di Giorgio", "address": "19405 BUENA VISTA BLVD, ARVIN, CA., 93203", "epa_region": "9", "state_name": "California", "county_name": "Kern", "cbsa_name": "Bakersfield, CA", "csa_title": " ", "monitor_count": "2"}}, {"type": "Feature", "geometry": {"type": "Point", "coordinates": [-119.272606, 35.503587]}, "properties": {"key": [1030], "site_id": ["060296001"], "site_name": "Shafter", "address": "548 WALKER ST., SHAFTER, CA., 93263", "epa_region": "9", "state_name": "California", "county_name": "Kern", "cbsa_name": "Bakersfield, CA", "csa_title": " ", "monitor_count": "2"}}, {"type": "Feature", "geometry": {"type": "Point", "coordinates": [-119.566954, 36.10218]}, "properties": {"key": [1035], "site_id": ["060310004"], "site_name": "Corcoran-Patterson", "address": "1520 PATTERSON AVE.", "epa_region": "9", "state_name": "California", "county_name": "Kings", "cbsa_name": "Hanford-Corcoran, CA", "csa_title": "Visalia-Porterville-Hanford, CA", "monitor_count": "3"}}, {"type": "Feature", "geometry": {"type": "Point", "coordinates": [-119.766212, 36.233274]}, "properties": {"key": [93410], "site_id": ["060310500"], "site_name": "Santa Rosa Rancheria", "address": "17225 Jersey Ave.", "epa_region": "9", "state_name": "California", "county_name": "Kings", "cbsa_name": "Hanford-Corcoran, CA", "csa_title": "Visalia-Porterville-Hanford, CA", "monitor_count": "2"}}, {"type": "Feature", "geometry": {"type": "Point", "coordinates": [-119.64457, 36.314399]}, "properties": {"key": [1040], "site_id": ["060311004"], "site_name": "Hanford-Irwin", "address": "807 SOUTH IRWIN ST., HANFORD", "epa_region": "9", "state_name": "California", "county_name": "Kings", "cbsa_name": "Hanford-Corcoran, CA", "csa_title": "Visalia-Porterville-Hanford, CA", "monitor_count": "5"}}, {"type": "Feature", "geometry": {"type": "Point", "coordinates": [-122.91333, 39.01893]}, "properties": {"key": [104019], "site_id": ["060333002"], "site_name": "Lakeport-S. Main Street", "address": "2617 S. Main Street, Lakeport, CA 95453", "epa_region": "9", "state_name": "California", "county_name": "Lake", "cbsa_name": "Clearlake, CA", "csa_title": " ", "monitor_count": "3"}}, {"type": "Feature", "geometry": {"type": "Point", "coordinates": [-122.6995, 38.77453]}, "properties": {"key": [1047], "site_id": ["060333010"], "site_name": "ANDERSON SPRINGS", "address": "11270 ANDERSON SPRINGS RD., MIDDLETOWN, CA", "epa_region": "9", "state_name": "California", "county_name": "Lake", "cbsa_name": "Clearlake, CA", "csa_title": " ", "monitor_count": "1"}}, {"type": "Feature", "geometry": {"type": "Point", "coordinates": [-122.75797, 38.84846]}, "properties": {"key": [1048], "site_id": ["060333011"], "site_name": "GLENBROOK", "address": "HIGH VALLEY RD, COBB, CA", "epa_region": "9", "state_name": "California", "county_name": "Lake", "cbsa_name": "Clearlake, CA", "csa_title": " ", "monitor_count": "1"}}, {"type": "Feature", "geometry": {"type": "Point", "coordinates": [-117.92391, 34.1365]}, "properties": {"key": [1053], "site_id": ["060370002"], "site_name": "Azusa", "address": "803 N. LOREN AVE., AZUSA", "epa_region": "9", "state_name": "California", "county_name": "Los Angeles", "cbsa_name": "Los Angeles-Long Beach-Anaheim, CA", "csa_title": "Los Angeles-Long Beach, CA", "monitor_count": "6"}}, {"type": "Feature", "geometry": {"type": "Point", "coordinates": [-117.85036, 34.14435]}, "properties": {"key": [1059], "site_id": ["060370016"], "site_name": "Glendora", "address": "840 LAUREL, GLENDORA", "epa_region": "9", "state_name": "California", "county_name": "Los Angeles", "cbsa_name": "Los Angeles-Long Beach-Anaheim, CA", "csa_title": "Los Angeles-Long Beach, CA", "monitor_count": "4"}}, {"type": "Feature", "geometry": {"type": "Point", "coordinates": [-118.45636, 34.05111]}, "properties": {"key": [1068], "site_id": ["060370113"], "site_name": "West Los Angeles", "address": "VA HOSPITAL, WEST LOS ANGELES", "epa_region": "9", "state_name": "California", "county_name": "Los Angeles", "cbsa_name": "Los Angeles-Long Beach-Anaheim, CA", "csa_title": "Los Angeles-Long Beach, CA", "monitor_count": "3"}}, {"type": "Feature", "geometry": {"type": "Point", "coordinates": [-118.22688, 34.06659]}, "properties": {"key": [1081], "site_id": ["060371103"], "site_name": "Los Angeles-North Main Street", "address": "1630 N MAIN ST, LOS ANGELES", "epa_region": "9", "state_name": "California", "county_name": "Los Angeles", "cbsa_name": "Los Angeles-Long Beach-Anaheim, CA", "csa_title": "Los Angeles-Long Beach, CA", "monitor_count": "12"}}, {"type": "Feature", "geometry": {"type": "Point", "coordinates": [-118.53276, 34.19925]}, "properties": {"key": [1085], "site_id": ["060371201"], "site_name": "Reseda", "address": "18330 GAULT ST., RESEDA", "epa_region": "9", "state_name": "California", "county_name": "Los Angeles", "cbsa_name": "Los Angeles-Long Beach-Anaheim, CA", "csa_title": "Los Angeles-Long Beach, CA", "monitor_count": "4"}}, {"type": "Feature", "geometry": {"type": "Point", "coordinates": [-118.205, 33.901389]}, "properties": {"key": [94733], "site_id": ["060371302"], "site_name": "Compton", "address": "700 North Bullis Road", "epa_region": "9", "state_name": "California", "county_name": "Los Angeles", "cbsa_name": "Los Angeles-Long Beach-Anaheim, CA", "csa_title": "Los Angeles-Long Beach, CA", "monitor_count": "6"}}, {"type": "Feature", "geometry": {"type": "Point", "coordinates": [-118.056389, 33.955]}, "properties": {"key": [95492], "site_id": ["060371403"], "site_name": "Uddelholm (Trojan Battery)", "address": "9440 Ann Street, Santa Fe Springs, CA 90670", "epa_region": "9", "state_name": "California", "county_name": "Los Angeles", "cbsa_name": "Los Angeles-Long Beach-Anaheim, CA", "csa_title": "Los Angeles-Long Beach, CA", "monitor_count": "1"}}, {"type": "Feature", "geometry": {"type": "Point", "coordinates": [-117.981667, 34.026111]}, "properties": {"key": [95493], "site_id": ["060371404"], "site_name": "Closet World (Quemetco)", "address": "500 S. 7th Ave. City of Industry, CA 91746", "epa_region": "9", "state_name": "California", "county_name": "Los Angeles", "cbsa_name": "Los Angeles-Long Beach-Anaheim, CA", "csa_title": "Los Angeles-Long Beach, CA", "monitor_count": "1"}}, {"type": "Feature", "geometry": {"type": "Point", "coordinates": [-118.193056, 34.006389]}, "properties": {"key": [95494], "site_id": ["060371405"], "site_name": "Rehrig (Exide)", "address": "4010 E. 26th Street, Vernon, CA 90058", "epa_region": "9", "state_name": "California", "county_name": "Los Angeles", "cbsa_name": "Los Angeles-Long Beach-Anaheim, CA", "csa_title": "Los Angeles-Long Beach, CA", "monitor_count": "2"}}, {"type": "Feature", "geometry": {"type": "Point", "coordinates": [-118.190556, 34.008333]}, "properties": {"key": [95495], "site_id": ["060371406"], "site_name": "ATSF (Exide)", "address": "Rail Road Yard Washington Blvd., Commerce, CA 90058", "epa_region": "9", "state_name": "California", "county_name": "Los Angeles", "cbsa_name": "Los Angeles-Long Beach-Anaheim, CA", "csa_title": "Los Angeles-Long Beach, CA", "monitor_count": "2"}}, {"type": "Feature", "geometry": {"type": "Point", "coordinates": [-118.06995, 34.01194]}, "properties": {"key": [92493], "site_id": ["060371602"], "site_name": "Pico Rivera #2", "address": "4144 SAN GABRIEL RIVER PKWY, PICO RIVERA", "epa_region": "9", "state_name": "California", "county_name": "Los Angeles", "cbsa_name": "Los Angeles-Long Beach-Anaheim, CA", "csa_title": "Los Angeles-Long Beach, CA", "monitor_count": "7"}}, {"type": "Feature", "geometry": {"type": "Point", "coordinates": [-117.7514, 34.06703]}, "properties": {"key": [1090], "site_id": ["060371701"], "site_name": "Pomona", "address": "924 N. GAREY AVE., POMONA", "epa_region": "9", "state_name": "California", "county_name": "Los Angeles", "cbsa_name": "Los Angeles-Long Beach-Anaheim, CA", "csa_title": "Los Angeles-Long Beach, CA", "monitor_count": "3"}}, {"type": "Feature", "geometry": {"type": "Point", "coordinates": [-118.1272, 34.1326]}, "properties": {"key": [1096], "site_id": ["060372005"], "site_name": "Pasadena", "address": "752 S. WILSON AVE., PASADENA", "epa_region": "9", "state_name": "California", "county_name": "Los Angeles", "cbsa_name": "Los Angeles-Long Beach-Anaheim, CA", "csa_title": "Los Angeles-Long Beach, CA", "monitor_count": "5"}}, {"type": "Feature", "geometry": {"type": "Point", "coordinates": [-118.18921, 33.82376]}, "properties": {"key": [1106], "site_id": ["060374002"], "site_name": "Long Beach (North)", "address": "3648 N. LONG BEACH BLVD., LONG BEACH", "epa_region": "9", "state_name": "California", "county_name": "Los Angeles", "cbsa_name": "Los Angeles-Long Beach-Anaheim, CA", "csa_title": "Los Angeles-Long Beach, CA", "monitor_count": "1"}}, {"type": "Feature", "geometry": {"type": "Point", "coordinates": [-118.17533, 33.79236]}, "properties": {"key": [91659], "site_id": ["060374004"], "site_name": "Long Beach (South)", "address": "1305 E. Pacific Coast Hwy., Long Beach", "epa_region": "9", "state_name": "California", "county_name": "Los Angeles", "cbsa_name": "Los Angeles-Long Beach-Anaheim, CA", "csa_title": "Los Angeles-Long Beach, CA", "monitor_count": "3"}}, {"type": "Feature", "geometry": {"type": "Point", "coordinates": [-118.22, 33.8025]}, "properties": {"key": [96184], "site_id": ["060374006"], "site_name": "Long Beach (Hudson)", "address": "2425 Webster St., Long Beach, CA", "epa_region": "9", "state_name": "California", "county_name": "Los Angeles", "cbsa_name": "Los Angeles-Long Beach-Anaheim, CA", "csa_title": "Los Angeles-Long Beach, CA", "monitor_count": "6"}}, {"type": "Feature", "geometry": {"type": "Point", "coordinates": [-118.200278, 33.859444]}, "properties": {"key": [99552], "site_id": ["060374008"], "site_name": "Long Beach-Route 710 Near Road", "address": "5895 Long Beach Blvd.", "epa_region": "9", "state_name": "California", "county_name": "Los Angeles", "cbsa_name": "Los Angeles-Long Beach-Anaheim, CA", "csa_title": "Los Angeles-Long Beach, CA", "monitor_count": "3"}}, {"type": "Feature", "geometry": {"type": "Point", "coordinates": [-118.43043, 33.9508]}, "properties": {"key": [91948], "site_id": ["060375005"], "site_name": "LAX Hastings", "address": "7201 W. WESTCHESTER PARKWAY", "epa_region": "9", "state_name": "California", "county_name": "Los Angeles", "cbsa_name": "Los Angeles-Long Beach-Anaheim, CA", "csa_title": "Los Angeles-Long Beach, CA", "monitor_count": "7"}}, {"type": "Feature", "geometry": {"type": "Point", "coordinates": [-118.5284, 34.38344]}, "properties": {"key": [1112], "site_id": ["060376012"], "site_name": "Santa Clarita", "address": "22224 PLACERITA CANYON RD, SANTA CLARITA", "epa_region": "9", "state_name": "California", "county_name": "Los Angeles", "cbsa_name": "Los Angeles-Long Beach-Anaheim, CA", "csa_title": "Los Angeles-Long Beach, CA", "monitor_count": "4"}}, {"type": "Feature", "geometry": {"type": "Point", "coordinates": [-118.131456, 34.671394]}, "properties": {"key": [1123], "site_id": ["060379033"], "site_name": "Lancaster-Division Street", "address": "43301 DIVISION ST., LANCASTER, CA", "epa_region": "9", "state_name": "California", "county_name": "Los Angeles", "cbsa_name": "Los Angeles-Long Beach-Anaheim, CA", "csa_title": "Los Angeles-Long Beach, CA", "monitor_count": "5"}}, {"type": "Feature", "geometry": {"type": "Point", "coordinates": [-120.010158, 36.867125]}, "properties": {"key": [1127], "site_id": ["060390004"], "site_name": "Madera-Pump Yard", "address": "RD. 29 1/2 NO. OF AVE 8 MADERA COUNTY", "epa_region": "9", "state_name": "California", "county_name": "Madera", "cbsa_name": "Madera, CA", "csa_title": "Fresno-Madera, CA", "monitor_count": "3"}}, {"type": "Feature", "geometry": {"type": "Point", "coordinates": [-120.034203, 36.953256]}, "properties": {"key": [95487], "site_id": ["060392010"], "site_name": "Madera-City", "address": "28261 Avenue 14 Madera CA 93638", "epa_region": "9", "state_name": "California", "county_name": "Madera", "cbsa_name": "Madera, CA", "csa_title": "Fresno-Madera, CA", "monitor_count": "4"}}, {"type": "Feature", "geometry": {"type": "Point", "coordinates": [-122.520004, 37.97231]}, "properties": {"key": [1128], "site_id": ["060410001"], "site_name": "San Rafael", "address": "534 4TH ST.", "epa_region": "9", "state_name": "California", "county_name": "Marin", "cbsa_name": "San Francisco-Oakland-Hayward, CA", "csa_title": "San Jose-San Francisco-Oakland, CA", "monitor_count": "5"}}, {"type": "Feature", "geometry": {"type": "Point", "coordinates": [-119.7062, 37.71325]}, "properties": {"key": [1132], "site_id": ["060430003"], "site_name": "Yosemite National Park, Turtleback Dome", "address": "TURTLEBACK DOME, YOSEMITE NATL&#039; PK 95389", "epa_region": "9", "state_name": "California", "county_name": "Mariposa", "cbsa_name": " ", "csa_title": " ", "monitor_count": "1"}}, {"type": "Feature", "geometry": {"type": "Point", "coordinates": [-119.844591, 37.549928]}, "properties": {"key": [1135], "site_id": ["060430006"], "site_name": "Jerseydale", "address": "6440 JERSEYDALE ROAD, JERSEYDALE", "epa_region": "9", "state_name": "California", "county_name": "Mariposa", "cbsa_name": " ", "csa_title": " ", "monitor_count": "1"}}, {"type": "Feature", "geometry": {"type": "Point", "coordinates": [-119.603754, 37.745759]}, "properties": {"key": [1136], "site_id": ["060431001"], "site_name": "Yosemite NP-Yosemite Village Vistor Center", "address": "Yosemite NP-Yosemite Village Vistor Center", "epa_region": "9", "state_name": "California", "county_name": "Mariposa", "cbsa_name": " ", "csa_title": " ", "monitor_count": "1"}}, {"type": "Feature", "geometry": {"type": "Point", "coordinates": [-123.20655, 39.15047]}, "properties": {"key": [1142], "site_id": ["060450006"], "site_name": "Ukiah-Library", "address": "105 N MAIN ST, UKIAH, CA 95482", "epa_region": "9", "state_name": "California", "county_name": "Mendocino", "cbsa_name": "Ukiah, CA", "csa_title": " ", "monitor_count": "1"}}, {"type": "Feature", "geometry": {"type": "Point", "coordinates": [-123.20298, 39.14566]}, "properties": {"key": [1144], "site_id": ["060450008"], "site_name": "Ukiah-Gobbi Street", "address": " 306 E. GOBBI STREET, UKIAH, CA", "epa_region": "9", "state_name": "California", "county_name": "Mendocino", "cbsa_name": "Ukiah, CA", "csa_title": " ", "monitor_count": "1"}}, {"type": "Feature", "geometry": {"type": "Point", "coordinates": [-123.78766, 39.43734]}, "properties": {"key": [96570], "site_id": ["060450010"], "site_name": "Fort Bragg-300 Dana Street", "address": "300 Dana Street, Fort Bragg, CA 95437", "epa_region": "9", "state_name": "California", "county_name": "Mendocino", "cbsa_name": "Ukiah, CA", "csa_title": " ", "monitor_count": "1"}}, {"type": "Feature", "geometry": {"type": "Point", "coordinates": [-123.35264, 39.41174]}, "properties": {"key": [95467], "site_id": ["060452002"], "site_name": "Willits-125 East Commercial Street", "address": "WILLITS JUSTICE CENTER, 125 EAST COMMERCIAL STREET, WILLITS, CA 95490", "epa_region": "9", "state_name": "California", "county_name": "Mendocino", "cbsa_name": "Ukiah, CA", "csa_title": " ", "monitor_count": "1"}}, {"type": "Feature", "geometry": {"type": "Point", "coordinates": [-120.434992, 37.281598]}, "properties": {"key": [1151], "site_id": ["060470003"], "site_name": "Merced-Coffee", "address": "385 S. COFFEE AVENUE, MERCED, CA 95340", "epa_region": "9", "state_name": "California", "county_name": "Merced", "cbsa_name": "Merced, CA", "csa_title": "Modesto-Merced, CA", "monitor_count": "3"}}, {"type": "Feature", "geometry": {"type": "Point", "coordinates": [-120.480993, 37.308537]}, "properties": {"key": [1158], "site_id": ["060472510"], "site_name": "Merced-M Street", "address": "2334 &#039;M&#039; ST. MERCED, CA", "epa_region": "9", "state_name": "California", "county_name": "Merced", "cbsa_name": "Merced, CA", "csa_title": "Modesto-Merced, CA", "monitor_count": "2"}}, {"type": "Feature", "geometry": {"type": "Point", "coordinates": [-118.96652, 37.64571]}, "properties": {"key": [1163], "site_id": ["060510001"], "site_name": "Mammoth", "address": "MAMMOTH, Corner of Old Mammoth Road and HWY 203,  MAMMOTH LAKES", "epa_region": "9", "state_name": "California", "county_name": "Mono", "cbsa_name": " ", "csa_title": " ", "monitor_count": "2"}}, {"type": "Feature", "geometry": {"type": "Point", "coordinates": [-119.120278, 37.962069]}, "properties": {"key": [1167], "site_id": ["060510005"], "site_name": "Lee Vining", "address": "330 Mattly Avenue, LEE VINING, 93541", "epa_region": "9", "state_name": "California", "county_name": "Mono", "cbsa_name": " ", "csa_title": " ", "monitor_count": "1"}}, {"type": "Feature", "geometry": {"type": "Point", "coordinates": [-118.947738, 38.069711]}, "properties": {"key": [1173], "site_id": ["060510011"], "site_name": "Mono Shore", "address": "MONO SHORE, HWY 167, 10 Mile Road, N shore Mono Lake", "epa_region": "9", "state_name": "California", "county_name": "Mono", "cbsa_name": " ", "csa_title": " ", "monitor_count": "1"}}, {"type": "Feature", "geometry": {"type": "Point", "coordinates": [-121.731571, 36.495767]}, "properties": {"key": [1178], "site_id": ["060530002"], "site_name": "Carmel Valley", "address": "35 Ford Road", "epa_region": "9", "state_name": "California", "county_name": "Monterey", "cbsa_name": "Salinas, CA", "csa_title": " ", "monitor_count": "2"}}, {"type": "Feature", "geometry": {"type": "Point", "coordinates": [-121.126371, 36.209286]}, "properties": {"key": [94017], "site_id": ["060530008"], "site_name": "King City 2", "address": "415 Pearl Street", "epa_region": "9", "state_name": "California", "county_name": "Monterey", "cbsa_name": "Salinas, CA", "csa_title": " ", "monitor_count": "3"}}, {"type": "Feature", "geometry": {"type": "Point", "coordinates": [-121.637182, 36.69676]}, "properties": {"key": [1185], "site_id": ["060531003"], "site_name": "Salinas 3", "address": "867 E. LAUREL Dr", "epa_region": "9", "state_name": "California", "county_name": "Monterey", "cbsa_name": "Salinas, CA", "csa_title": " ", "monitor_count": "5"}}, {"type": "Feature", "geometry": {"type": "Point", "coordinates": [-122.296189, 38.310942]}, "properties": {"key": [1190], "site_id": ["060550003"], "site_name": "Napa", "address": "2552 JEFFERSON AVE.", "epa_region": "9", "state_name": "California", "county_name": "Napa", "cbsa_name": "Napa, CA", "csa_title": "San Jose-San Francisco-Oakland, CA", "monitor_count": "4"}}, {"type": "Feature", "geometry": {"type": "Point", "coordinates": [-121.056591, 39.234331]},